name,latitude_deg,longitude_deg,country,municipality,iata_code
Aleknagik / New Airport,59.2826004028,-158.617996216,US,Aleknagik,WKK
Sas Al Nakheel Air Base,24.44128,54.51696,AE,Sas Al Nakheel,
"""Ghost"" International Airport",33.284605,69.80734,AF,Khost,KHT
Honiara International Airport,-9.428,160.054993,SB,Honiara,HIR
Munda Airport,-8.32797,157.263,SB,Munda,MUA
Hongyuan Airport,32.53154,102.35224,CN,Ngawa (Hongyuan),AHJ
Nauru International Airport,-0.547458,166.919006,NR,Yaren District,INU
Boulder Clay Runway,-74.739373,164.03539,AQ,Zucchelli Station,
Concordia Skyway,-75.103278,123.35825,AQ,Concordia Station,
Vostok Skiway,-78.466139,106.84825,AQ,Vostok Station,
Alxa Left Banner Bayanhot Airport,38.74831,105.58858,CN,Bayanhot,AXF
Buka Airport,-5.4223198890686035,154.67300415039062,PG,Buka Island,BUA
Chimbu Airport,-6.024290084838867,144.9709930419922,PG,Kundiawa,CMU
Daru Airport,-9.08676,143.207993,PG,Daru,DAU
Goroka Airport,-6.081689834590001,145.391998291,PG,Goronka,GKA
Gurney Airport,-10.3114995956,150.333999634,PG,Gurney,GUR
Girua Airport,-8.80453968048,148.309005737,PG,Popondetta,PNP
Hoskins Airport,-5.463846,150.407327,PG,Kimbe,HKN
Kerema Airport,-7.96361017227,145.770996094,PG,Kerema,KMA
Kavieng Airport,-2.57940006256,150.807998657,PG,Kavieng,KVG
Madang Airport,-5.20707988739,145.789001465,PG,Madang,MAG
Mount Hagen Kagamuga Airport,-5.828212,144.299412,PG,Mount Hagen,HGU
Mendi Airport,-6.14774,143.656998,PG,Mendi,MDU
Momote Airport,-2.06189,147.423996,PG,Manus Island,MAS
Nadzab Airport,-6.569803,146.725977,PG,Lae,LAE
Port Moresby Jacksons International Airport,-9.44338035583496,147.22000122070312,PG,Port Moresby,POM
Tokua Airport,-4.34046,152.380005,PG,Kokopo,RAB
Vanimo Airport,-2.6926,141.3028,PG,Vanimo,VAI
Wapenamanda Airport,-5.635293,143.892231,PG,Wapenamanda,WBM
Wewak International Airport,-3.58383011818,143.669006348,PG,Wewak,WWK
Zabrat Airport,40.4955422161,49.9768066406,AZ,Baku,ZXT
Sitalchay Airbase,40.807313,49.431481,AZ,Sitalchay,
Qizilagach Air Base,39.006162,48.806312,AZ,Qizilagach,
Benguera Island Airport,-21.8533,35.438301,MZ,Benguera Island,BCW
Bezmer Air Base,42.454899,26.3522,BG,Bezmer,JAM
Aasiaat Airport,68.721802,-52.784698,GL,Aasiaat,JEG
Narsarsuaq Airport,61.1605,-45.425999,GL,Narsarsuaq,UAK
Nuuk Airport,64.193022,-51.676512,GL,Nuuk,GOH
Ilulissat Airport,69.243202,-51.057098,GL,Ilulissat,JAV
Kulusuk Airport,65.573601,-37.1236,GL,Kulusuk,KUS
Kangerlussuaq Airport,67.010446,-50.715294,GL,Kangerlussuaq,SFJ
Sisimiut Airport,66.951302,-53.729301,GL,Sisimiut,JHS
Pituffik Space Base,76.531197,-68.703201,GL,Pituffik,THU
Akureyri Airport,65.656573,-18.072018,IS,Akureyri,AEY
Egilsstaðir Airport,65.2833023071289,-14.401399612426758,IS,Egilsstaðir,EGS
Hornafjörður Airport,64.295601,-15.2272,IS,Höfn,HFN
Húsavík Airport,65.952301,-17.426001,IS,Húsavík,HZK
Ísafjörður Airport,66.058098,-23.1353,IS,Ísafjörður,IFJ
Keflavik International Airport,63.985001,-22.6056,IS,Reykjavík,KEF
Reykjavik Airport,64.1299972534,-21.9405994415,IS,Reykjavik,RKV
Siglufjörður Airport,66.137847,-18.908157,IS,Siglufjörður,SIJ
Vestmannaeyjar Airport,63.42430114746094,-20.278900146484375,IS,Vestmannaeyjar,VEY
Priština Adem Jashari International Airport,42.5728,21.035801,XK,Prishtina,PRN
Glauber de Andrade Rocha Airport,-14.907885,-40.914804,BR,Vitória da Conquista,VDC
Betong International Airport,5.79,101.15,TH,Betong,BTZ
Orsha Airport - Balbasovo Air Base,54.439999,30.2967,BY,Orsha,TXC
Bobrovichi Air Base,52.27830123901367,29.36000061035156,BY,Kalinovichi,
Osovtsy Air Base,52.556999,24.884001,BY,Byaroza,
Caye Caulker Airport,17.735015,-88.032862,BZ,Caye Caulker,CUK
Caye Chapel Airport,17.683792,-88.044985,BZ,Caye Chapel,CYC
Corozal Municipal Airport,18.3822,-88.411903,BZ,Corozal,CZH
Dangriga Airport,16.98251,-88.230988,BZ,Dangriga,DGA
Placencia Airport,16.536957,-88.361511,BZ,Placencia,PLJ
Punta Gorda Airport,16.1024,-88.808296,BZ,Punta Gorda,PND
Sartaneja Airport,18.3561,-88.130798,BZ,Sartaneja,SJX
John Greif II Airport,17.9139,-87.9711,BZ,San Pedro,SPR
Sir Barry Bowen Municipal Airport,17.517239,-88.195775,BZ,Belize City,TZA
Bazaruto Island Airport,-21.5411,35.4729,MZ,Bazaruto Island,BZB
Anahim Lake Airport,52.451501,-125.303776,CA,Anahim Lake,YAA
Qualicum Beach Airport,49.337456,-124.393086,CA,Qualicum Beach,XQU
Cache Creek-Ashcroft Regional Airport,50.775258,-121.321314,CA,Cache Creek,YZA
Bella Bella (Campbell Island) Airport,52.185001,-128.156994,CA,Bella Bella,ZEL
Boma Lukandu International Airport,-5.80543,12.99582,CD,Boma,
BNB - BOENDE,-0.2875,20.883056,CD,Boende,
Nuevo Chaitén Airport,-42.781943,-72.834999,CL,Chaitén,WCH
Laohutun Air Base,39.669998,121.765999,CN,Dalian (Wafangdian),
Pulandian Air Base,39.450901,122.017998,CN,"Pulandian, Dalian",
Beijing Shahezhen Air Base,40.149166107177734,116.3213882446289,CN,Beijing,
Beijing Tongxian Air Base,39.81111145019531,116.70833587646484,CN,Beijing,
Yuanmou Air Base,25.737499,101.882004,CN,Chuxiong (Yuanmou),YUA
Fengning Air Base,41.260799407958984,116.61799621582033,CN,,
Hohhot Bikeqi Air Base,40.737015,111.229749,CN,Hohhot,
Huairen Air Base,39.717499,113.142998,CN,Shuozhou,
Liangxiangzhen Air Base,39.757801,116.125999,CN,Beijing,
Tangguantun Air Base,38.781101,117.068001,CN,Jinghai,
Wenshui Air Base,37.407799,111.966003,CN,Lüliang,
Yangcun Air Base,39.37329864501953,117.09500122070312,CN,,
Yongning Air Base,40.50310134887695,116.10800170898438,CN,Yongning,
Zhangjiakou Ningyuan Airport,40.738602,114.93,CN,Zhangjiakou,ZQZ
Tangshan Zunhua Air Base,40.102501,117.887001,CN,Tangshan,
Chengdu Huangtianba Air Base,30.705299,103.949997,CN,Chengdu (Qingyang),
Baoshan Yunrui Airport,25.053301,99.168297,CN,Baoshan (Longyang),BSD
Chongqing Baishiyi Air Base,29.4953,106.359001,CN,Chongqing,
Lincang Boshang Airport,23.7381,100.025002,CN,Lincang,LNJ
Luliang Air Base,24.988192,103.642833,CN,Qujing (Luliang),
Honghe Mengzi Airport / Mengzi Air Base,23.3953,103.334,CN,Honghe,
Qionglai Air Base,30.49099,103.466139,CN,Chengdu (Qionglai),
Xigaze Peace Airport / Shigatse Air Base,29.3519,89.311401,CN,Xigazê (Samzhubzê),RKZ
Wenshan Air Base,23.715599060058594,103.8270034790039,CN,,
Xiangyun Midu Air Base,25.445299,100.735001,CN,Dali (Xiangyun),
Panzhihua Bao'anying Airport,26.54,101.79852,CN,Panzhihua (Renhe),PZI
Baihe Ningming Air Base,22.120481,107.125046,CN,Ningming,
Changsha Datuopu Airport / Changsha Air Base,28.068522,112.957306,CN,Changsha (Tianxin),
Dangyang Air Base,30.798599,111.809998,CN,Yichang (Dangyang),
Foluo Northeast Air Base,18.6922,109.161003,CN,Ledong (Da'anzhen),
Foshan Shadi Airport,23.0833,113.07,CN,Foshan (Nanhai),FUO
Guiping Mengxu Air Base,23.330799,110.009003,CN,Guiping (Guigang),
Xinyang Minggang Airport,32.540819,114.079141,CN,Xinyang,XAI
Huizhou Pingtan Airport,23.049999,114.599998,CN,Huizhou (Pingtan),HUZ
Jialaishi Air Base,19.697201,109.725998,CN,Lingao (Jialai),
Leiyang Air Base,26.58720016479492,112.89199829101562,CN,,
Lingshui Air Base,18.4944,109.987999,CN,Lingshui (Huayuan),
Shangqiu Air Base,34.449507,115.459261,CN,Shangqiu,
Zhengzhou Air Base,34.86125,113.729631,CN,Zhengzhou,
Shaoguan Danxia Airport,24.9786,113.420998,CN,Shaoguan,HSC
Suixi Air Base,21.3958,110.199997,CN,Zhanjiang (Suixi),
Jinggangshan Airport,26.856899,114.737,CN,Ji'an,JGS
Baise Youjiang Airport,23.7206,106.959999,CN,Baise (Tianyang),AEB
Guodu Air Base,36.000428,117.625833,CN,"Xintai, Tai'an",
Xiaogan Air Base,30.95359,113.911774,CN,Xiaogan (Xiaonan),
Lianyungang Huaguoshan International Airport,34.41406,119.17899,CN,Lianyungang,LYG
Cangxian Air Base,38.403025,116.930924,CN,Cangzhou,
Dongying Shengli Airport,37.50137,118.789863,CN,Dongying (Kenli),DOY
Jiaozhou Jiaocheng Air Base,36.331163,120.025538,CN,Qingdao (Jiaozhou),
Jiugucheng Air Base,37.491153,116.116726,CN,Hengshui,
Kaifeng Air Base,34.75389862060547,114.33899688720705,CN,Kaifeng,
Laiyang Air Base,36.9636,120.591003,CN,Yantai,
Luyang Air Base,33.685434,112.89053,CN,Xuchang (Pingdingshan),
Xingcheng Air Base,40.580328,120.700374,CN,Huludao (Xingcheng),XEN
Xuzhou Daguozhang Air Base,34.229285,117.245665,CN,Xuzhou,
Zhucheng Air Base,36.027468,119.43778,CN,Weifang (Zhucheng),
Altay Xuedu Airport,47.749886,88.085808,CN,Altay,AAT
Baoji Air Base,34.53125,107.470679,CN,Baoji (Fengxiang),
Gonghe Air Base (under construction),36.3367,100.480003,CN,Hainan (Gonghe),
Huangdicun Naval Air Base,40.49979,120.659295,CN,Huludao,
Lanzhou Air Base,35.917801,104.218002,CN,Lanzhou (Yuzhong),
Lintao Air Base,35.3083,103.835999,CN,Dingxi (Lintao),
Qingshui Air Base,39.554699,98.884201,CN,Jiuquan (Suzhou),
Tianshui Maijishan Airport,34.5601,105.860343,CN,Tianshui (Maiji),THQ
Ürümqi South Air Base,43.466593,87.531177,CN,Ürümqi,
Uxxaktal Air Base,42.1814,87.188103,CN,"Hoxud, Bayingolin",
Wugong Air Base,34.275907,108.2658,CN,Xianyang (Wugong),
Ürümqi Changji Air Base,43.951175,87.079232,CN,Ashilixiang,
Wuwei Air Base,37.9883,102.567001,CN,Wuwei,
Xi'an Air Base,34.153059,108.599739,CN,Xi'an (Huyi),
Xincheng Air Base,25.5483,114.619003,CN,Ganzhou,
Yaerbashi Test Range,43.077202,92.808098,CN,"Yizhou, Hami",
Yanliang Air Base,34.642248,109.241867,CN,Xi'an (Yanliang),
Daishan Air Base,30.287581,122.144401,CN,Zhoushan,
Feidong Air Base,31.909401,117.658997,CN,Hefei,
Fuzhou Air Base,26.0044,119.311996,CN,Fuzhou,
Huian Air Base,25.026100158691406,118.80699920654295,CN,,
Hangzhou Jianqiao Airport,30.3353,120.240997,CN,Hangzhou,
Jiaxing Airport / Jiaxing Air Base,30.705535,120.679779,CN,"Xiuzhou, Hangzhou",
Longtian Air Base,25.5728,119.459999,CN,Fuzhou (Fuqing),
Nanchang Xiangtang Air Base,28.421205,115.923375,CN,Nanchang,
Ningbo Zhuangqiao Air Base,29.9228,121.573997,CN,Ningbo,
Shanghai Dachang Air Base,31.324438,121.409508,CN,Shanghai (Baoshan),
Wuhan Hannan Municipal Airport,30.25521,114.062805,CN,Wuhan (Hannan),WHN
Zhangshu Air Base,28.023283,115.549649,CN,Yichun,
Changchun Air Base,43.9053,125.197998,CN,Changchun,
Beijing Nanjiao Airport,39.48595,116.37236,CN,Beijing,NAY
Dandong Langtou Airport,40.025453,124.28669,CN,Dandong (Zhenxing),DDG
Dingxin-Shuangchengzi Air Base,40.401402,99.789398,CN,Jiuquan (Jinta),
Fuxin Air Base,42.078899,121.662003,CN,"Xihe, Fuxin",
Gongzhuling Air Base,43.526293,124.78466,CN,Siping,
Kaiyuan Air Base,42.525799,123.982002,CN,"Qinghe, Tieling",
Lalin Air Base,45.259457,126.893536,CN,Harbin,
Pingquan Air Base,40.900409,118.677878,CN,Chengde,
Shenyang Beiling Air Base,41.8708,123.439003,CN,"Huanggu, Shenyang",
Shenyang Yuhong Quansheng Airport,41.822498,123.299004,CN,"Yuhong, Shenyang",
Siping Air Base,43.156898,124.292,CN,Siping,
Suizhong Air Base,40.298992,120.36152,CN,Huludao (Suizhong),
Tuchengzi Air Base,38.912201,121.238998,CN,Dalian (Lüshunkou),
Rikaze Dingri Airport,28.604567,86.798,CN,Xigazê (Dingri),DDR
Tashikuergan Hongqilafu Airport,37.661333,75.288877,CN,Tashikuergan,HQL
Chenghu General Airport,31.215334,120.789328,CN,Suzhou,
Liyang Tianmuhu General Airport,31.53904,119.502554,CN,Changzhou,
Anji Tianzihu General Airport,30.797725,119.590287,CN,Anji,
Jiuzhou Airport,26.998259,107.759571,CN,Jiuzhou,
Paozhuwan Air Base,30.673944,114.63089,CN,Wuhan (Xinzhou),
Shanpo Air Base,30.087612,114.31366,CN,Wuhan,
Zhanjiang Wuchuan Airport,21.481667,110.590278,CN,Zhanjiang,ZHA
Ali Pulan Airport,30.3975,81.138611,CN,Burang Town,APJ
Shaodong Airport,27.2235,111.6741,CN,Shaoyang (Shaodong),
Ningxiang,27.987589,112.604971,CN,,
Sanshilipu Air Base,39.289671,121.762195,CN,Dalian (Jinzhou),
Nantong Xingdong International Airport,32.073566,120.980076,CN,Nantong (Tongzhou),NTG
Brampton-Caledon Airport,43.7603,-79.875,CA,,
Lefkoniko Airport / Geçitkale Air Base,35.23591,33.720088,CY,Lefkoniko (Geçitkale),GEC
Fort Frances Municipal Airport,48.655749,-93.44349,CA,Fort Frances,YAG
La Grande-4 Airport,53.754699707,-73.6753005981,CA,La Grande-4,YAH
Sault Ste Marie Airport,46.483216,-84.508467,CA,Sault Ste Marie,YAM
Kasabonika Airport,53.52470016479492,-88.6427993774414,CA,Kasabonika,XKS
Winnipeg / St. Andrews Airport,50.0564,-97.032501,CA,Winnipeg/Saint Andrews,
Lac Du Bonnet Airport,50.294399,-96.010002,CA,Lac Du Bonnet,
St. Anthony Airport,51.391909,-56.08321,CA,St. Anthony,YAY
Tofino / Long Beach Airport,49.079833,-125.775583,CA,Tofino,YAZ
Baie-Comeau Airport,49.1325,-68.204399,CA,Baie-Comeau,YBC
Bella Coola Airport,52.387501,-126.596001,CA,Bella Coola,QBC
Bonnyville Airport,54.304199,-110.744003,CA,Bonnyville,YBY
CFB Bagotville / Saguenay-Bagotville Airport,48.331908,-70.992909,CA,La Baie,YBG
Baker Lake Airport,64.29889678960001,-96.077796936,CA,Baker Lake,YBK
Campbell River Airport,49.950802,-125.271004,CA,Campbell River,YBL
Brandon Municipal Airport,49.91,-99.951897,CA,Brandon,YBR
Nipawin Airport,53.33250045776367,-104.00800323486328,CA,Nipawin,
Calgary / Springbank Airport,51.1031,-114.374001,CA,Calgary,
Lourdes-de-Blanc-Sablon Airport,51.4436,-57.185299,CA,Blanc-Sablon,YBX
Cambridge Bay Airport,69.1081008911,-105.138000488,CA,Cambridge Bay,YCB
Cornwall Regional Airport,45.092637,-74.567724,CA,Cornwall,YCC
Nanaimo Airport,49.05497,-123.869863,CA,Nanaimo,YCD
Centralia / James T. Field Memorial Aerodrome,43.285599,-81.508301,CA,Huron Park,YCE
Castlegar/West Kootenay Regional Airport,49.296398,-117.632004,CA,Castlegar,YCG
Miramichi Airport,47.007801,-65.449203,CA,Miramichi,YCH
Charlo Airport,47.990799,-66.330299,CA,Charlo,YCL
Cochrane Airport,49.10559844970703,-81.01360321044922,CA,Cochrane,YCN
Blue River Airport,52.11669921875,-119.28299713134766,CA,Blue River,
Chetwynd Airport,55.687198638916016,-121.6269989013672,CA,Chetwynd,YCQ
Dawson City Airport,64.04309844970703,-139.1280059814453,CA,Dawson City,YDA
Burwash Airport,61.371101,-139.041,CA,Burwash Landing,YDB
Deer Lake Airport,49.2108,-57.391399,CA,Deer Lake,YDF
Ross River Airport,61.9706001282,-132.42300415,CA,Ross River,XRR
Dauphin Barker Airport,51.1008,-100.052002,CA,Dauphin,YDN
Dolbeau-Saint-Felicien Airport,48.7785,-72.375,CA,Dolbeau-Saint-Felicien,YDO
Dawson Creek Airport,55.741245,-120.183263,CA,Dawson Creek,YDQ
Huronia Airport,44.6833000183,-79.9282989502,CA,Midland,
Edmonton International Airport,53.3097,-113.580002,CA,Edmonton,YEG
Elliot Lake Municipal Airport,46.351398468,-82.5614013672,CA,Elliot Lake,YEL
Manitoulin East Municipal Airport,45.842435,-81.857595,CA,Sheguiandah,YEM
Estevan Airport,49.2103004456,-102.966003418,CA,Estevan,YEN
Edson Airport,53.578899383499994,-116.464996338,CA,Edson,YET
Inuvik Mike Zubko Airport,68.30419921880001,-133.483001709,CA,Inuvik,YEV
Amos/Magny Airport,48.563903,-78.249702,CA,Amos,YEY
Iqaluit Airport,63.756402,-68.555801,CA,Iqaluit,YFB
Fredericton Airport,45.868900299072266,-66.53720092773438,CA,Fredericton,YFC
Forestville Airport,48.74610137939453,-69.09719848632812,CA,Forestville,YFE
Mont-Tremblant International Airport,46.409401,-74.779999,CA,La Macaza,YTM
Fort Resolution Airport,61.1808013916,-113.690002441,CA,Fort Resolution,YFR
Fort Simpson Airport,61.76020050048828,-121.23699951171876,CA,Fort Simpson,YFS
Goderich Airport,43.7668991089,-81.7106018066,CA,Goderich,
Golden Airport,51.299196,-116.982002,CA,Golden,
Kingston Norman Rogers Airport,44.2253,-76.596901,CA,Kingston,YGK
La Grande Rivière Airport,53.625301361083984,-77.7042007446289,CA,La Grande Rivière,YGL
Gimli Industrial Park Airport,50.62810134887695,-97.04329681396484,CA,Gimli,YGM
Michel-Pouliot Gaspé Airport,48.774915,-64.481893,CA,Gaspé,YGP
Geraldton Greenstone Regional Airport,49.77830123901367,-86.93939971923828,CA,Geraldton,YGQ
Îles-de-la-Madeleine Airport,47.425242,-61.778612,CA,Les Îles-de-la-Madeleine,YGR
Havre-Saint-Pierre Airport,50.281898,-63.611401,CA,Havre-Saint-Pierre,YGV
Kuujjuarapik Airport,55.28189849853515,-77.76529693603516,CA,Kuujjuarapik,YGW
Dryden Regional Airport,49.831699,-92.744202,CA,Dryden,YHD
Hearst René Fontaine Municipal Airport,49.71419906616211,-83.68609619140625,CA,Hearst,YHF
John C. Munro Hamilton International Airport,43.173599243199995,-79.93499755859999,CA,Hamilton,YHM
Hornepayne Municipal Airport,49.19309997558594,-84.75890350341797,CA,Hornepayne,YHN
Haines Junction Airport,60.7892,-137.546005,CA,Haines Junction,YHT
Montréal / Saint-Hubert Airport,45.5175018311,-73.4169006348,CA,Montréal,YHU
Hay River / Merlyn Carter Airport,60.8396987915,-115.782997131,CA,Hay River,YHY
Halifax / Stanfield International Airport,44.8807983398,-63.5085983276,CA,Halifax,YHZ
Atikokan Municipal Airport,48.7738990784,-91.6386032104,CA,Atikokan,YIB
Digby / Annapolis Regional Airport,44.5458450365,-65.7854247093,CA,Digby,YDG
St Augustin Airport,51.2117,-58.658298,CA,St-Augustin,YIF
Island Lake Airport,53.857200622558594,-94.65360260009766,CA,Island Lake,YIV
Fort Liard Airport,60.2358016968,-123.46900177,CA,Fort Liard,YJF
St Jean Airport,45.29439926147461,-73.28109741210938,CA,St Jean,YJN
Dymond Airport,48.544201,-58.549999,CA,Stephenville,YJT
Kamloops John Moose Fulton Field Regional Airport,50.703038,-120.448641,CA,Kamloops,YKA
Region of Waterloo International Airport,43.4608,-80.378601,CA,Breslau,YKF
Key Lake Airport,57.256099700927734,-105.61799621582033,CA,Key Lake,YKJ
Schefferville Airport,54.805301666259766,-66.8052978515625,CA,Schefferville,YKL
Kincardine Municipal Airport,44.201401,-81.606697,CA,Kincardine,YKD
Kirkland Lake Airport,48.21030044555664,-79.98139953613281,CA,Kirkland Lake,YKX
Kindersley Airport,51.5175018311,-109.180999756,CA,Kindersley,YKY
Chapleau Airport,47.81999969482422,-83.3467025756836,CA,Chapleau,YLD
Meadow Lake Airport,54.125301361083984,-108.52300262451172,CA,Meadow Lake,YLJ
Lloydminster Airport,53.3092,-110.072998,CA,Lloydminster,YLL
Leaf Rapids Airport,56.513301849365234,-99.98529815673828,CA,Leaf Rapids,YLR
Barrie-Lake Simcoe Regional Airport,44.485056,-79.554663,CA,Barrie,YLK
Alert Airport,82.517799,-62.280602,CA,Alert,YLT
Kelowna International Airport,49.9561,-119.377998,CA,Kelowna,YLW
Mayo Airport,63.61640167236328,-135.8679962158203,CA,Mayo,YMA
Matane Airport,48.85689926147461,-67.45330047607422,CA,Matane,YME
Manitouwadge Airport,49.08390045166016,-85.86060333251953,CA,Manitouwadge,YMG
Moose Jaw Air Vice Marshal C. M. McEwen Airport,50.330299377441406,-105.55899810791016,CA,Moose Jaw,YMJ
Charlevoix Airport,47.59749984741211,-70.2238998413086,CA,Charlevoix,YML
Fort McMurray Airport,56.653301239,-111.222000122,CA,Fort McMurray,YMM
Moosonee Airport,51.29109954833984,-80.60780334472656,CA,Moosonee,YMO
Chapais Airport,49.77190017700195,-74.5280990600586,CA,Chibougamau,YMT
Montreal International (Mirabel) Airport,45.679501,-74.038696,CA,Montréal,YMX
Natashquan Airport,50.190114,-61.78898,CA,Natashquan,YNA
Ottawa / Gatineau Airport,45.521702,-75.563599,CA,Gatineau,YND
Langley Airport,49.1008,-122.630997,CA,Langley,YLY
Points North Landing Airport,58.27669906616211,-104.08200073242188,CA,Points North Landing,YNL
Matagami Airport,49.76169967651367,-77.80280303955078,CA,Matagami,YNM
Nejanilini Lake Airport,59.4874992371,-97.7802963257,CA,Nejanilini Lake,
Ekati Airport,64.6988983154,-110.614997864,CA,Ekati,YOA
CFB Cold Lake,54.404998779296875,-110.27899932861328,CA,Cold Lake,YOD
High Level Airport,58.62139892578125,-117.16500091552734,CA,High Level,YOJ
Oshawa Executive Airport,43.922798,-78.894997,CA,Oshawa,YOO
Rainbow Lake Airport,58.491402,-119.407997,CA,Rainbow Lake,YOP
Owen Sound / Billy Bishop Regional Airport,44.5903015137,-80.8375015259,CA,Owen Sound,YOS
Ottawa Macdonald-Cartier International Airport,45.322498,-75.669197,CA,Ottawa,YOW
Prince Albert Glass Field,53.2141990662,-105.672996521,CA,Prince Albert,YPA
Port Hawkesbury Airport,45.6567001343,-61.3680992126,CA,Port Hawkesbury,YPS
Peace River Airport,56.226898,-117.446999,CA,Peace River,YPE
Portage-la-Prairie / Southport Airport,49.903099,-98.273817,CA,Portage la Prairie,YPG
Pitt Meadows Airport,49.216099,-122.709999,CA,Pitt Meadows,
Pickle Lake Airport,51.4463996887207,-90.21420288085938,CA,Pickle Lake,YPL
Port-Menier Airport,49.836399,-64.288597,CA,Port-Menier,YPN
Peterborough Municipal Airport,44.23,-78.363297,CA,Peterborough,YPQ
Prince Rupert Airport,54.2860984802,-130.445007324,CA,Prince Rupert,YPR
Powell River Airport,49.83420181274414,-124.5,CA,Powell River,YPW
Puvirnituq Airport,60.050598,-77.286903,CA,Puvirnituq,YPX
Fort Chipewyan Airport,58.7672004699707,-111.11699676513672,CA,Fort Chipewyan,YPY
Burns Lake Airport,54.3764,-125.950996,CA,Burns Lake,YPZ
Muskoka Airport,44.975376,-79.306546,CA,Gravenhurst,YQA
Quebec Jean Lesage International Airport,46.7911,-71.393303,CA,Quebec,YQB
The Pas Airport,53.97140121459961,-101.09100341796876,CA,The Pas,YQD
Red Deer Regional Airport,52.182201,-113.893997,CA,Springbrook,YQF
Windsor Airport,42.27560043334961,-82.95559692382812,CA,Windsor,YQG
Watson Lake Airport,60.116839,-128.821993,CA,Watson Lake,YQH
Yarmouth Airport,43.826900482177734,-66.08809661865234,CA,Yarmouth,YQI
Kenora Airport,49.788299560546875,-94.36309814453124,CA,Kenora,YQK
Lethbridge County Airport,49.6302986145,-112.800003052,CA,Lethbridge,YQL
Greater Moncton Roméo LeBlanc International Airport,46.112202,-64.678596,CA,Moncton,YQM
Nakina Airport,50.18280029296875,-86.69640350341797,CA,Nakina,YQN
Comox Valley Airport / CFB Comox,49.7108,-124.887001,CA,Comox,YQQ
Regina International Airport,50.43190002441406,-104.66600036621094,CA,Regina,YQR
St Thomas Municipal Airport,42.77000045776367,-81.11080169677734,CA,St Thomas,YQS
Thunder Bay Airport,48.37189865112305,-89.32389831542969,CA,Thunder Bay,YQT
Grande Prairie Airport,55.1796989441,-118.885002136,CA,Grande Prairie,YQU
Yorkton Municipal Airport,51.26470184326172,-102.46199798583984,CA,Yorkton,YQV
North Battleford Airport,52.769409,-108.243742,CA,North Battleford,YQW
Gander International Airport / CFB Gander,48.936258,-54.567719,CA,Gander,YQX
Sydney / J.A. Douglas McCurdy Airport,46.1614,-60.047798,CA,Sydney,YQY
Quesnel Airport,53.026100158691406,-122.51000213623048,CA,Quesnel,YQZ
Resolute Bay Airport,74.7169036865,-94.9693984985,CA,Resolute Bay,YRB
Rivière-du-Loup Airport,47.764400482177734,-69.58470153808594,CA,Rivière-du-Loup,YRI
Roberval Airport,48.519665,-72.265735,CA,Roberval,YRJ
Red Lake Airport,51.066898345947266,-93.79309844970705,CA,Red Lake,YRL
Ottawa / Rockcliffe Airport,45.4603004456,-75.64610290530001,CA,Ottawa,YRO
Ottawa / Carp Airport,45.3191986084,-76.0222015381,CA,Ottawa,
Trois-Rivières Airport,46.35279846191406,-72.67939758300781,CA,Trois-Rivières,YRQ
Rankin Inlet Airport,62.8114013672,-92.1157989502,CA,Rankin Inlet,YRT
Revelstoke Airport,50.962245,-118.184258,CA,Revelstoke,YRV
Sudbury Airport,46.625,-80.79889678955078,CA,Sudbury,YSB
Sherbrooke Airport,45.438599,-71.691399,CA,Sherbrooke,YSC
Stony Rapids Airport,59.250301361083984,-105.84100341796876,CA,Stony Rapids,YSF
Saint-Georges Airport,46.096401,-70.714699,CA,Saint-Georges,
Smiths Falls-Montague (Russ Beach) Airport,44.945801,-75.940598,CA,Smiths Falls,YSH
Saint John Airport,45.31610107421875,-65.89029693603516,CA,Saint John,YSJ
Saint-Léonard Airport,47.157097,-67.836242,CA,Saint-Léonard,YSL
Fort Smith Airport,60.020302,-111.961998,CA,Fort Smith,YSM
Niagara District Airport,43.191598,-79.171686,CA,Niagara-on-the-Lake,YCM
Marathon Airport,48.75529861450195,-86.34439849853516,CA,Marathon,YSP
Summerside Airport,46.440601,-63.833599,CA,Slemon Park,YSU
Pembroke Airport,45.86439895629883,-77.25170135498047,CA,Pembroke,YTA
Alma Airport,48.5089,-71.641899,CA,Alma,YTF
Thompson Airport,55.80110168457031,-97.86419677734376,CA,Thompson,YTH
CFB Trenton,44.118900299072266,-77.5280990600586,CA,Trenton,YTR
Timmins/Victor M. Power,48.5696983337,-81.376701355,CA,Timmins,YTS
Billy Bishop Toronto City Centre Airport,43.627499,-79.396202,CA,Toronto,YTZ
Montreal / Pierre Elliott Trudeau International Airport,45.467837,-73.742294,CA,Montréal,YUL
Hall Beach Airport,68.7761,-81.2425,CA,Sanirajak,YUX
Rouyn Noranda Airport,48.20610046386719,-78.83560180664062,CA,Rouyn-Noranda,YUY
Bonaventure Airport,48.071098,-65.460297,CA,Bonaventure,YVB
La Ronge Airport,55.1514015198,-105.262001038,CA,La Ronge,YVC
Virden / RJ (Bob) Andrew Field Regional Aerodrome,49.8783,-100.917999,CA,Virden,
Vernon Regional Airport,50.246163,-119.330963,CA,Vernon,YVE
Val-d'Or Airport,48.0532989502,-77.7827987671,CA,Val-d'Or,YVO
Kuujjuaq Airport,58.096099853515625,-68.4269027709961,CA,Kuujjuaq,YVP
Norman Wells Airport,65.28160095214844,-126.7979965209961,CA,Norman Wells,YVQ
Vancouver International Airport,49.193901062,-123.183998108,CA,Vancouver,YVR
Wiarton Airport,44.7458,-81.107201,CA,Wiarton,YVV
Petawawa Airport,45.95220184326172,-77.31919860839844,CA,Petawawa,YWA
Winnipeg / James Armstrong Richardson International Airport,49.909999847399995,-97.2398986816,CA,Winnipeg,YWG
Wabush Airport,52.92190170288086,-66.8644027709961,CA,Wabush,YWK
Williams Lake Airport,52.1831016541,-122.054000854,CA,Williams Lake,YWL
Wrigley Airport,63.20940017700195,-123.43699645996094,CA,Wrigley,YWY
Cranbrook/Canadian Rockies International Airport,49.610801696777,-115.78199768066,CA,Cranbrook,YXC
Saskatoon John G. Diefenbaker International Airport,52.170799255371094,-106.6999969482422,CA,Saskatoon,YXE
Medicine Hat Regional Airport,50.018902,-110.721001,CA,Medicine Hat,YXH
Fort St John / North Peace Regional Airport,56.238098,-120.739998,CA,Fort Saint John,YXJ
Rimouski Airport,48.477644,-68.496323,CA,Rimouski,YXK
Sioux Lookout Airport,50.11389923095703,-91.9052963256836,CA,Sioux Lookout,YXL
Beaver Creek Airport,62.410301208496094,-140.86700439453125,CA,Beaver Creek,YXQ
Earlton (Timiskaming Regional) Airport,47.6974006546,-79.8473453522,CA,Earlton,YXR
Prince George Airport,53.884311,-122.666554,CA,Prince George,YXS
Northwest Regional Airport Terrace-Kitimat,54.468498,-128.576009,CA,Terrace,YXT
London Airport,43.035599,-81.1539,CA,London,YXU
Abbotsford International Airport,49.025299,-122.361,CA,Abbotsford,YXX
Whitehorse / Erik Nielsen International Airport,60.709599,-135.067001,CA,Whitehorse,YXY
Wawa Airport,47.96670150756836,-84.78669738769531,CA,Wawa,YXZ
North Bay Jack Garland Airport,46.363602,-79.422798,CA,North Bay,YYB
Calgary International Airport,51.118822,-114.009933,CA,Calgary,YYC
Smithers Airport,54.82469940185547,-127.18299865722656,CA,Smithers,YYD
Fort Nelson Airport,58.8363990784,-122.597000122,CA,Fort Nelson,YYE
Penticton Airport,49.46310043334961,-119.60199737548828,CA,Penticton,YYF
Charlottetown Airport,46.290000915527344,-63.12110137939453,CA,Charlottetown,YYG
Victoria International Airport,48.647201,-123.427792,CA,Victoria,YYJ
Lynn Lake Airport,56.86389923095703,-101.07599639892578,CA,Lynn Lake,YYL
Swift Current Airport,50.291900634799994,-107.691001892,CA,Swift Current,YYN
Churchill Airport,58.739200592041016,-94.06500244140624,CA,Churchill,YYQ
Goose Bay Airport,53.3191986084,-60.4258003235,CA,Goose Bay,YYR
St. John's International Airport,47.618599,-52.7519,CA,St. John's,YYT
Kapuskasing Airport,49.411587,-82.469645,CA,Kapuskasing,YYU
Armstrong Airport,50.29029846191406,-88.90969848632812,CA,Armstrong,YYW
Mont Joli Airport,48.60860061645508,-68.20809936523438,CA,Mont-Joli,YYY
Toronto Lester B. Pearson International Airport,43.6772,-79.6306,CA,Toronto,YYZ
Downsview Airport,43.7425,-79.465599,CA,North York,
Gore Bay Manitoulin Airport,45.8853,-82.567802,CA,Gore Bay,YZE
Yellowknife International Airport,62.462799,-114.440002,CA,Yellowknife,YZF
Slave Lake Airport,55.292945,-114.777276,CA,Slave Lake,YZH
Sandspit Airport,53.25429916379999,-131.813995361,CA,Sandspit,YZP
Chris Hadfield Airport,42.999401,-82.308899,CA,Sarnia,YZR
Coral Harbour Airport,64.1932983398,-83.3593978882,CA,Coral Harbour,YZS
Port Hardy Airport,50.68059921264648,-127.36699676513672,CA,Port Hardy,YZT
Whitecourt Airport,54.143902,-115.787003,CA,Whitecourt,YZU
Sept-Îles Airport,50.22330093383789,-66.2656021118164,CA,Sept-Îles,YZV
Teslin Airport,60.17279815673828,-132.7429962158203,CA,Teslin,YZW
CFB Greenwood,44.98440170288086,-64.91690063476562,CA,Greenwood,YZX
Mackenzie Airport,55.297786,-123.133907,CA,Mackenzie,
Shuswap Regional Airport,50.682802,-119.228996,CA,Salmon Arm,YSN
Boundary Bay Airport,49.0742,-123.012001,CA,Delta,YDT
Bathurst Airport,47.6297,-65.738899,CA,South Tetagouche,ZBF
Bromont (Roland Désourdy) Airport,45.290798,-72.741402,CA,Bromont,ZBM
Kelsey Airport,56.0374984741,-96.5096969604,CA,Kelsey,KES
Faro Airport,62.20750045776367,-133.37600708007812,CA,Faro,ZFA
Grand Forks Airport,49.015598,-118.431,CA,Grand Forks,ZGF
Jenpeg Airport,54.51890182495117,-98.0460968017578,CA,Jenpeg,ZJG
Swan River Airport,52.120602,-101.236,CA,Swan River,ZJN
Thicket Portage Airport,55.31890106201172,-97.70780181884766,CA,Thicket Portage,YTD
Pikwitonei Airport,55.58890151977539,-97.16419982910156,CA,Pikwitonei,PIW
Masset Airport,54.0275,-132.125,CA,Masset,ZMT
Pincher Creek Airport,49.520429,-113.997002,CA,Pincher Creek,WPC
Sandy Lake Airport,53.06420135498047,-93.34439849853516,CA,Sandy Lake,ZSJ
Stewart Airport,55.935410448,-129.982434511,CA,Stewart,ZST
Ignace Municipal Airport,49.428204,-91.720418,CA,Ignace,ZUC
Blida Airport,36.503601,2.81417,DZ,Blida,QLD
Bou Saada Airport,35.3325,4.20639,DZ,Ouled Sidi Brahim,BUJ
Soummam–Abane Ramdane Airport,36.711952,5.069804,DZ,Béjaïa,BJA
Houari Boumediene Airport,36.693886,3.214531,DZ,Algiers,ALG
Djanet Inedbirene Airport,24.292801,9.45244,DZ,Djanet,DJG
Boufarik Air Base,36.545799,2.87611,DZ,Boufarik,
Illizi Takhamalt Airport,26.723499,8.62265,DZ,Illizi,VVZ
Ain Arnat Airport,36.178100585900005,5.3244900703399995,DZ,Sétif,QSF
Aguenar – Hadj Bey Akhamok Airport,22.811501,5.45108,DZ,Tamanrasset,TMR
Jijel Ferhat Abbas Airport,36.795101,5.87361,DZ,Tahir,GJL
Mecheria Airport,33.535900116,-0.242353007197,DZ,Mecheria,MZW
Relizane Airport,35.752955,0.625877,DZ,Relizane,
Annaba Rabah Bitat Airport,36.826781,7.81334,DZ,Annaba,AAE
Mohamed Boudiaf International Airport,36.2760009765625,6.620389938354492,DZ,Constantine,CZL
Cheikh Larbi Tébessi Airport,35.4315986633,8.12071990967,DZ,Tébessi,TEE
Batna Mostefa Ben Boulaid Airport,35.752102,6.30859,DZ,Batna,BLJ
Hassi R'Mel Airport,32.930401,3.31154,DZ,Hassi R'Mel,HRM
Abdelhafid Boussouf Bou Chekif Airport,35.341099,1.46315,DZ,Tiaret,TID
Tindouf Airport,27.7003993988,-8.167099952700001,DZ,Tindouf,TIN
Chlef Aboubakr Belkaid International Airport,36.217166,1.342237,DZ,Chlef,CFK
Oran Tafraoui Airport,35.5424,-0.532278,DZ,Tafraoui,TAF
Zenata – Messali El Hadj Airport,35.013426,-1.457191,DZ,Zenata,TLM
Oran Es-Sénia (Ahmed Ben Bella) International Airport,35.623901,-0.621183,DZ,Es-Sénia,ORN
Béchar Boudghene Ben Ali Lotfi Airport,31.64570045471191,-2.269860029220581,DZ,Béchar,CBH
Ghriss Airport,35.207699,0.147142,DZ,Ghriss,MUW
Touat Cheikh Sidi Mohamed Belkebir Airport,27.837601,-0.186414,DZ,Adrar,AZR
Biskra - Mohamed Khider Airport,34.793301,5.73823,DZ,Biskra,BSK
El Golea Airport,30.580732,2.861595,DZ,El Menia,ELG
Noumérat - Moufdi Zakaria Airport,32.384102,3.79411,DZ,El Atteuf,GHA
Hassi Messaoud-Oued Irara Krim Belkacem Airport,31.673,6.14044,DZ,Hassi Messaoud,HME
In Salah Airport,27.250999,2.51202,DZ,In Salah,INZ
Touggourt Sidi Madhi Airport,33.067799,6.08867,DZ,Touggourt,TGR
Laghouat - Molay Ahmed Medeghri Airport,33.7644,2.92834,DZ,Laghouat,LOO
Guemar Airport,33.5113983154,6.77679014206,DZ,Guemar,ELU
Timimoun Airport,29.237101,0.276033,DZ,Timimoun,TMX
Ain Beida Airport,31.9172,5.41278,DZ,Ouargla,OGX
Zarzaitine - In Aménas Airport,28.0515,9.64291,DZ,In Aménas,IAM
Cadjehoun Airport,6.357230186462402,2.384350061416626,BJ,Cotonou,COO
Baicheng Chang'an Airport,45.505278,123.019722,CN,Baicheng,DBC
Ouagadougou Airport,12.3532,-1.51242,BF,Ouagadougou,OUA
Bobo Dioulasso Airport,11.160099983215332,-4.33096981048584,BF,Bobo Dioulasso,BOY
Kotoka International Airport,5.605189800262451,-0.1667860001325607,GH,Accra,ACC
Ho Airport,6.579691,0.532547,GH,Ho,
Tamale Airport,9.55718994140625,-0.8632140159606934,GH,Tamale,TML
Kumasi Airport,6.714560031890869,-1.5908199548721311,GH,Kumasi,KMS
Sunyani Airport,7.36183,-2.32876,GH,Sunyani,NYI
Takoradi Airport,4.896059989929199,-1.7747600078582764,GH,Sekondi-Takoradi,TKD
Félix-Houphouët-Boigny International Airport,5.26139,-3.92629,CI,Abidjan,ABJ
Bouaké Airport,7.7388,-5.07367,CI,Bouaké,BYK
Daloa Airport,6.79281,-6.47319,CI,,DJO
Korhogo Airport,9.38718,-5.55666,CI,Korhogo,HGO
Man Airport,7.27207,-7.58736,CI,,MJC
San Pedro Airport,4.74672,-6.66082,CI,,SPY
Yamoussoukro Airport,6.9031701088,-5.36558008194,CI,Yamoussoukro,ASK
Nnamdi Azikiwe International Airport,9.00679,7.26317,NG,Abuja,ABV
Akwa Ibom International Airport,4.8725,8.093,NG,Uyo,QUO
Akure Airport,7.246739864349365,5.3010101318359375,NG,Akure,AKR
Asaba International Airport,6.204167,6.665278,NG,Asaba,ABB
Sir Abubakar Tafawa Balewa International Airport,10.482833,9.744,NG,Bauchi,BCU
Benin Airport,6.316979885101318,5.5995001792907715,NG,Benin,BNI
Bayelsa International Airport,4.95759,6.203327,NG,Yenagoa,
Margaret Ekpo International Airport,4.976019859313965,8.347200393676758,NG,Calabar,CBQ
Akanu Ibiam International Airport,6.474269866943359,7.561960220336914,NG,Enegu,ENU
Gusau Airport,12.1717,6.69611,NG,Gusau,QUS
Ibadan Airport,7.362460136413574,3.97832989692688,NG,Ibadan,IBA
Ilorin International Airport,8.440210342407227,4.493919849395752,NG,Ilorin,ILR
Sam Mbakwe International Airport,5.427060127258301,7.206029891967773,NG,Owerri,QOW
Yakubu Gowon Airport,9.639829635620115,8.869050025939941,NG,Jos,JOS
Kaduna Airport,10.696000099182127,7.320109844207764,NG,Kaduna,KAD
Mallam Aminu International Airport,12.0476,8.52462,NG,Kano,KAN
Maiduguri International Airport,11.855299949645996,13.080900192260742,NG,Maiduguri,MIU
Makurdi Airport,7.70388,8.61394,NG,Makurdi,MDI
Murtala Muhammed International Airport,6.5773701667785645,3.321160078048706,NG,Lagos,LOS
Minna Airport,9.652170181274414,6.462259769439697,NG,Minna,MXJ
Port Harcourt International Airport,5.0154900550842285,6.94959020614624,NG,Port Harcourt,PHC
Sadiq Abubakar III International Airport,12.916299819946287,5.207190036773682,NG,Sokoto,SKO
Yola Airport,9.257550239562988,12.430399894714355,NG,Yola,YOL
Zaria Airport,11.1302,7.68581,NG,Zaria,ZAR
Maradi Airport,13.5025,7.12675,NE,Maradi,MFQ
Diori Hamani International Airport,13.4815,2.18361,NE,Niamey,NIM
Tahoua Airport,14.8757,5.26536,NE,Tahoua,THZ
Mano Dayak International Airport,16.965999603271484,8.000109672546387,NE,Agadez,AJY
Zinder Airport,13.779000282287598,8.983759880065918,NE,Zinder,ZND
Tabarka-Aïn Draham International Airport,36.98,8.87694,TN,Tabarka,TBJ
Monastir Habib Bourguiba International Airport,35.75809860229492,10.75469970703125,TN,Monastir,MIR
Enfidha - Hammamet International Airport,36.075833,10.438611,TN,Enfidha,NBE
Tunis Carthage International Airport,36.851002,10.2272,TN,Tunis,TUN
Bizerte Sidi Ahmed Air Base,37.242356,9.787016,TN,Borj Challouf,
Remada Air Base,32.306198,10.3821,TN,Remada,
Gafsa Ksar International Airport,34.422000885009766,8.822500228881836,TN,Gafsa,GAF
Gabès Matmata International Airport,33.733691,9.91941,TN,Gabès,GAE
Djerba Zarzis International Airport,33.875,10.7755,TN,Mellita,DJE
El Borma Airport,31.7043,9.25462,TN,El Borma,EBM
Sfax Thyna International Airport,34.71799850463867,10.690999984741213,TN,Sfax,SFA
Tozeur Nefta International Airport,33.939701080322266,8.110560417175293,TN,Tozeur,TOE
Niamtougou International Airport,9.767330169677734,1.091249942779541,TG,Niamtougou,LRL
Lomé–Tokoin International Airport,6.16561,1.25451,TG,Lomé,LFW
Amguid Regional Airport,26.393417,5.325419,DZ,Idlès,
Dazhou Jinya Airport,31.048815,107.435646,CN,Dazhou (Dachuan),DZH
Antwerp International Airport (Deurne),51.190667,4.463153,BE,Antwerp,ANR
Beauvechain Air Base,50.758598,4.76833,BE,Beauvechain,
Kleine Brogel Air Base,51.168301,5.47,BE,Kleine Brogel,
Brussels Airport,50.901402,4.48444,BE,Zaventem,BRU
Brussels South Charleroi Airport,50.460982,4.457158,BE,Charleroi,CRL
Chièvres Air Base,50.575801849365234,3.8310000896453857,BE,Chièvres,
Koksijde Air Base,51.090302,2.65278,BE,Koksijde,
Florennes Air Base,50.2433013916,4.64583015442,BE,Florennes,
Flanders International Airport Kortrijk-Wevelgem,50.818878,3.209551,BE,Wevelgem,KJK
Liège Airport,50.638574,5.443897,BE,Grâce-Hollogne,LGG
Oostende-Brugge International Airport,51.1998,2.874673,BE,Oostende,OST
Leipzig–Altenburg Airport,50.981945,12.506389,DE,Nobitz,AOC
Heringsdorf Airport,53.8787,14.1523,DE,Zirchow,HDF
Neubrandenburg Trollenhagen Airport,53.6022,13.306,DE,Trollenhagen,FNB
Rothenburg/Görlitz Airfield,51.363335,14.95,DE,Rothenburg/Oberlausitz,
Berlin Brandenburg Airport,52.362247,13.500672,DE,Berlin,BER
Dresden Airport,51.134123,13.767831,DE,Dresden,DRS
Erfurt-Weimar Airport,50.979801,10.9581,DE,Erfurt,ERF
Frankfurt Airport,50.030241,8.561096,DE,Frankfurt am Main,FRA
Münster Osnabrück Airport,52.134602,7.68483,DE,Greven,FMO
Hamburg Helmut Schmidt Airport,53.630402,9.98823,DE,Hamburg,HAM
Cologne Bonn Airport,50.865898,7.14274,DE,Köln (Cologne),CGN
Düsseldorf Airport,51.289501,6.76678,DE,Düsseldorf,DUS
Munich Airport,48.353802,11.7861,DE,Munich,MUC
Nuremberg Airport,49.498699,11.078056,DE,Nuremberg,NUE
Leipzig/Halle Airport,51.420657,12.232705,DE,Schkeuditz,LEJ
Saarbrücken Airport,49.2145996094,7.10950994492,DE,Saarbrücken,SCN
Stuttgart Airport,48.689899,9.22196,DE,Stuttgart,STR
Hannover Airport,52.461102,9.68508,DE,Hannover,HAJ
Bremen Airport,53.046786,8.78932,DE,Bremen,BRE
Frankfurt-Egelsbach Airport,49.96,8.643043,DE,Egelsbach,
Frankfurt-Hahn Airport,49.9487,7.26389,DE,Frankfurt am Main (Lautzenhausen),HHN
Mannheim-City Airport,49.473057,8.514167,DE,Mannheim,MHG
Mainz-Finthen Airfield,49.967499,8.147222,DE,Mainz,
Eisenach-Kindel Airport,50.991604,10.47973,DE,Hörselberg-Hainich,EIB
Siegerland Airport,50.707699,8.08297,DE,Burbach,SGE
Hamburg-Finkenwerder Airport,53.5352783203125,9.835556030273438,DE,Hamburg,XFW
Kiel-Holtenau Airport,54.37957,10.145266,DE,Kiel,KEL
Lübeck Blankensee Airport,53.805401,10.7192,DE,Lübeck,LBC
Memmingen Allgau Airport,47.988800048799995,10.2395000458,DE,Memmingen,FMM
Mönchengladbach Airport,51.230278,6.504444,DE,Mönchengladbach,MGL
Paderborn Lippstadt Airport,51.614101,8.61632,DE,Büren,PAD
Weeze Airport,51.6024017334,6.14216995239,DE,Weeze,NRN
Dortmund Airport,51.518299,7.61224,DE,Dortmund,DTM
Augsburg Airport,48.425278,10.931667,DE,Augsburg,AGB
Oberpfaffenhofen Airport,48.081402,11.2831,DE,Weßling,OBF
Friedrichshafen Airport,47.671299,9.51149,DE,Friedrichshafen,FDH
Bamberg-Breitenau Airfield,49.920403,10.914233,DE,Bamberg,
Bayreuth Airport,49.985001,11.64,DE,Bindlach,BYU
Hof-Plauen Airport,50.288544,11.852876,DE,Hof,HOQ
Karlsruhe Baden-Baden Airport,48.7794,8.0805,DE,Rheinmünster,FKB
Donaueschingen-Villingen Airfield,47.973331,8.522222,DE,Donaueschingen,
Lahr Airport,48.369301,7.82772,DE,Lahr/Schwarzwald,LHA
Adolf Würth Airport,49.118332,9.783889,DE,Schwäbisch Hall,
Zerbst Airfield,52.000832,12.148611,DE,Straguth,
Braunschweig-Wolfsburg Airport,52.319199,10.5561,DE,Braunschweig,BWE
Kassel Airport,51.420699,9.392152,DE,Calden,KSF
Westerland Sylt Airport,54.9132,8.34047,DE,Sylt,GWT
Ämari Air Base,59.259599,24.204799,EE,Keila,
Kärdla Airport,58.99079895019531,22.830699920654297,EE,Kärdla,KDL
Kuressaare Airport,58.22990036010742,22.50950050354004,EE,Kuressaare,URE
Pärnu Airport,58.41899871826172,24.47279930114746,EE,Pärnu,EPU
Berenice International Airport / Banas Cape Air Base,23.980437,35.460277,EG,Berenice Troglodytica,EES
Lennart Meri Tallinn Airport,59.413246,24.83264,EE,Tallinn,TLL
Tartu Airport,58.307499,26.690399,EE,Tartu,TAY
Enontekio Airport,68.362602233887,23.424299240112,FI,Enontekio,ENF
Halli Airport,61.856039,24.786686,FI,Jämsä,KEV
Helsinki Vantaa Airport,60.318363,24.963341,FI,Helsinki,HEL
Kitee Airport,62.1661,30.073601,FI,Kitee,KTQ
Ivalo Airport,68.607299804688,27.405300140381,FI,Ivalo,IVL
Joensuu Airport,62.658815,29.619398,FI,Joensuu,JOE
Jyväskylä Airport,62.399502,25.678301,FI,Jyväskylän Maalaiskunta,JYV
Kauhava Airfield,63.127102,23.051399,FI,Kauhava,KAU
Kemi-Tornio Airport,65.778701782227,24.582099914551,FI,Kemi / Tornio,KEM
Kajaani Airport,64.2855,27.6924,FI,Kajaani,KAJ
Kauhajoki Airfield,62.463212,22.390817,FI,,KHJ
Kokkola-Pietarsaari Airport,63.721199,23.143101,FI,Kokkola / Kruunupyy,KOK
Kuusamo Airport,65.987602,29.239401,FI,Kuusamo,KAO
Kittilä Airport,67.700996398926,24.846799850464,FI,Kittilä,KTT
Kuopio Airport,63.007099,27.7978,FI,Kuopio / Siilinjärvi,KUO
Lappeenranta Airport,61.044601,28.144743,FI,Lappeenranta,LPP
Mariehamn Airport,60.1222,19.898199,FI,Mariehamn,MHQ
Mikkeli Airport,61.6866,27.201799,FI,Mikkeli,MIK
Oulu Airport,64.930099,25.354601,FI,Oulu / Oulunsalo,OUL
Pori Airport,61.4617,21.799999,FI,Pori,POR
Helsinki East-Redstone Aerodrome,60.479167,26.593889,FI,Helsinki (Pyhtää),
Rovaniemi Airport,66.564796447754,25.830400466919,FI,Rovaniemi,RVN
Savonlinna Airport,61.9431,28.945101,FI,Savonlinna,SVL
Seinäjoki Airport,62.692101,22.8323,FI,Seinäjoki / Ilmajoki,SJY
Sodankyla Airport,67.3949966431,26.6191005707,FI,Sodankyla,SOT
Tampere-Pirkkala Airport,61.414101,23.604401,FI,Tampere / Pirkkala,TMP
Turku Airport,60.514099,22.2628,FI,Turku,TKU
Utti Air Base,60.8964,26.9384,FI,Utti / Valkeala,UTI
Vaasa Airport,63.050701,21.762199,FI,Vaasa,VAA
Varkaus Airport,62.171101,27.868601,FI,Varkaus / Joroinen,VRK
Ylivieska Airfield,64.054722,24.725278,FI,,YLI
Bilbeis 2 Airfield,30.42060089111328,31.67889976501465,EG,Bilbeis,
Belfast International Airport,54.6575012207,-6.2158298492399995,GB,Belfast,BFS
Enniskillen/St Angelo Airport,54.398899,-7.65167,GB,Enniskillen,ENK
George Best Belfast City Airport,54.618099,-5.8725,GB,Belfast,BHD
City of Derry Airport,55.04280090332031,-7.161109924316406,GB,Derry,LDY
Birmingham Airport,52.453899,-1.74803,GB,"Birmingham, West Midlands",BHX
Coventry Airport,52.3697013855,-1.47971999645,GB,Coventry,CVT
Gloucestershire Airport,51.89419937133789,-2.167220115661621,GB,Staverton,GLO
Nottingham Airport,52.919998,-1.07917,GB,Nottingham,NQT
Manchester Airport,53.349375,-2.279521,GB,"Manchester, Greater Manchester",MAN
Royal Marines Base Chivenor,51.0872,-4.15034,GB,Chivenor,
MoD Boscombe Down,51.152199,-1.74741,GB,Amesbury,
RNAS Culdrose,50.08610153198242,-5.255710124969482,GB,Helston,
MOD St Athan,51.405229,-3.433254,GB,"St Athan, Vale of Glamorgan",
RNAS Yeovilton,51.0093994140625,-2.638819932937622,GB,Yeovil,YEO
Campbeltown Airport,55.437198638916016,-5.686389923095703,GB,Campbeltown,CAL
Eday Airport,59.19060134887695,-2.7722198963165283,GB,Eday,EOI
Haverfordwest Airport,51.833099365234375,-4.9611101150512695,GB,Haverfordwest,HAW
Cardiff International Airport,51.396702,-3.34333,GB,"Rhoose, Vale of Glamorgan",CWL
Swansea Airport,51.601366,-4.071006,GB,Swansea,SWS
Bristol Airport,51.382702,-2.71909,GB,Bristol,BRS
Liverpool John Lennon Airport,53.333599,-2.84972,GB,Liverpool,LPL
London Luton Airport,51.874699,-0.368333,GB,"Luton, Bedfordshire",LTN
Bournemouth Airport,50.780483,-1.839576,GB,"Christchurch, Dorset",BOH
Southampton Airport,50.950298,-1.3568,GB,Southampton,SOU
Lasham Airfield,51.187199,-1.0335,GB,Lasham,
Cornwall Airport Newquay,50.440601,-4.99541,GB,Newquay,NQY
Alderney Airport,49.706104,-2.21472,GG,Saint Anne,ACI
Guernsey Airport,49.435001,-2.60197,GG,Saint Peter Port,GCI
Jersey Airport,49.20790100097656,-2.195509910583496,JE,Saint Helier,JER
Brighton City Airport,50.835602,-0.297222,GB,"Brighton, East Sussex",ESH
London Biggin Hill Airport,51.33079910279999,0.0324999988079,GB,London,BQH
London Gatwick Airport,51.148771,-0.192089,GB,"Gatwick, Surrey",LGW
London City Airport,51.505299,0.055278,GB,London,LCY
Farnborough Airport,51.2757987976,-0.776332974434,GB,Farnborough,FAB
Blackbushe Airport,51.323898,-0.8475,GB,"Camberley, Surrey",BBS
London Heathrow Airport,51.4706,-0.461941,GB,London,LHR
London Southend Airport,51.570562,0.693627,GB,"Southend-on-Sea, Essex",SEN
Lydd London Ashford Airport,50.956246,0.939074,GB,"Romney Marsh, Kent",LYX
Carlisle Lake District Airport,54.9375,-2.80917,GB,Carlisle,CAX
Blackpool International Airport,53.77170181274414,-3.0286099910736084,GB,Blackpool,BLK
Humberside Airport,53.57440185546875,-0.350832998752594,GB,Grimsby,HUY
Barrow Walney Island Airport,54.1286111,-3.2675,GB,Barrow-in-Furness,BWF
Leeds Bradford Airport,53.865898,-1.66057,GB,"Leeds, West Yorkshire",LBA
Warton Aerodrome,53.745098,-2.88306,GB,Warton,WRT
Hawarden Airport,53.178101,-2.97778,GB,Broughton,CEG
Isle of Man Airport,54.083302,-4.62389,IM,Castletown,IOM
Newcastle Airport,55.037958,-1.689577,GB,Newcastle,NCL
Teesside International Airport,54.509201,-1.42941,GB,"Darlington, Durham",MME
East Midlands Airport,52.8311,-1.32806,GB,Nottingham,EMA
RAF Spadeadam,55.0499992371,-2.54999995232,GB,Spadeadam,
RAF Shawbury,52.79819869995117,-2.6680400371551514,GB,Shawbury,
Anglesey Airport,53.2481002808,-4.53533983231,GB,Angelsey,VLY
Kirkwall Airport,58.957801818847656,-2.9049999713897705,GB,Orkney Islands,KOI
Sumburgh Airport,59.87889862060547,-1.295560002326965,GB,Lerwick,LSI
Wick Airport,58.45890045166016,-3.09306001663208,GB,Wick,WIC
Aberdeen Dyce Airport,57.2019,-2.19778,GB,Aberdeen,ABZ
Inverness Airport,57.54249954223633,-4.047500133514404,GB,Inverness,INV
Glasgow International Airport,55.871899,-4.43306,GB,"Paisley, Renfrewshire",GLA
Edinburgh Airport,55.950145,-3.372288,GB,Edinburgh,EDI
Islay Airport,55.682708,-6.257525,GB,"Isle of Islay, Argyll and Bute",ILY
Glasgow Prestwick Airport,55.502003,-4.587019,GB,"Prestwick, South Ayrshire",PIK
Benbecula Airport,57.48109817504883,-7.362780094146728,GB,Balivanich,BEB
Dundee Airport,56.45249938964844,-3.025830030441284,GB,Dundee,DND
Stornoway Airport,58.215599,-6.33111,GB,"Stornoway, Western Isles",SYY
Barra Airport,57.0228,-7.44306,GB,Eoligarry,BRR
Tiree Airport,56.49919891357422,-6.869170188903809,GB,Balemartine,TRE
Leuchars Station Airfield,56.37398,-2.868862,GB,"Leuchars, Fife",ADX
RAF Lossiemouth,57.7052001953125,-3.339169979095459,GB,Lossiemouth,LMO
Cambridge City Airport,52.205002,0.175,GB,"Cambridge, Cambridgeshire",CBG
Norwich Airport,52.6758,1.28278,GB,"Norwich, Norfolk",NWI
London Stansted Airport,51.884998,0.235,GB,London,STN
Cranfield Airport,52.072201,-0.616667,GB,Cranfield,
Exeter International Airport,50.734261,-3.413984,GB,"Exeter, Devon",EXT
Oxford (Kidlington) Airport,51.8368988037,-1.32000005245,GB,Kidlington,OXF
RAF Benson,51.616401672399995,-1.09582996368,GB,Benson,BEX
RAF Lakenheath,52.40954,0.561161,GB,"Brandon, Suffolk",LKZ
RAF Mildenhall,52.3619,0.486406,GB,"Bury Saint Edmunds, Suffolk",MHZ
Wattisham Airfield,52.127451,0.956189,GB,"Ipswich, Suffolk",
RAF Fairford,51.682201,-1.79003,GB,Fairford,FFD
RAF Brize Norton,51.75,-1.58362,GB,"Carterton, Oxfordshire",BZZ
RAF Odiham,51.2341003418,-0.94282501936,GB,Odiham,ODH
DCAE Cosford Air Base,52.639999,-2.30558,GB,Cosford,
RAF Northolt,51.553001,-0.418167,GB,London,NHT
RAF Coningsby,53.0929985046,-0.166014000773,GB,Coningsby,QCY
RAF Leeming Air Base,54.2924,-1.5354,GB,Leeming,
Leeds East Airport,53.834747,-1.194678,GB,"Tadcaster, North Yorkshire",
RAF Honington,52.342602,0.772939,GB,"Bury Saint Edmunds, Suffolk",BEQ
RAF Scampton,53.307800293,-0.550832986832,GB,Scampton,SQZ
RAF Wittering,52.612598,-0.476453,GB,Wittering,
RAF Waddington,53.1661987305,-0.523810982704,GB,Waddington,WTN
RAF Topcliffe,54.205501556399994,-1.3820899725,GB,Topcliffe,
RAF Cranwell,53.0303001404,-0.48324200511,GB,Cranwell,
RAF Barkston Heath,52.962200164799995,-0.561625003815,GB,Grantham,
RAF Marham,52.648395,0.550692,GB,"King's Lynn, Norfolk",KNF
Mount Pleasant Airport,-51.82279968261719,-58.44720077514648,FK,Mount Pleasant,MPN
Amsterdam Airport Schiphol,52.308601,4.76389,NL,Amsterdam,AMS
Kempen Airport Budel,51.255299,5.60139,NL,Weert,
Maastricht Aachen Airport,50.911701,5.77014,NL,Maastricht,MST
Deelen Air Base,52.0606,5.87306,NL,Arnhem,
Eindhoven Airport,51.4500999451,5.37452983856,NL,Eindhoven,EIN
Groningen Airport Eelde,53.119701,6.57944,NL,Groningen,GRQ
Gilze Rijen Air Base,51.567402,4.93183,NL,Rijen,GLZ
De Kooy Airfield / Den Helder Naval Air Station,52.923401,4.78062,NL,Den Helder,DHR
Lelystad Airport,52.453188,5.514622,NL,Lelystad,LEY
Leeuwarden Air Base,53.22859954833984,5.760560035705566,NL,Leeuwarden,LWR
Rotterdam The Hague Airport,51.956902,4.43722,NL,Rotterdam,RTM
Twente Airport,52.275833,6.889167,NL,Enschede,ENS
Ezhou Huahu Airport,30.341178,115.03926,CN,Ezhou,EHU
Volkel Air Base,51.657222,5.707778,NL,Uden,UDE
Woensdrecht Air Base,51.4491,4.34203,NL,Hoogerheide,WOE
Cork Airport,51.841301,-8.49111,IE,Cork,ORK
Galway Airport,53.300201416015625,-8.941590309143066,IE,Galway,GWY
Donegal Airport,55.0442008972168,-8.340999603271484,IE,Donegal,CFN
Dublin Airport,53.428713,-6.262121,IE,Dublin,DUB
Ireland West Knock Airport,53.910301,-8.81849,IE,Charlestown,NOC
Kerry Airport,52.180901,-9.52378,IE,Killarney,KIR
Casement Air Base,53.301700592,-6.451330184940001,IE,Baldonnel,
Shannon Airport,52.702,-8.92482,IE,Shannon,SNN
Sligo Airport,54.280200958252,-8.5992097854614,IE,Sligo,SXL
Waterford Airport,52.187199,-7.08696,IE,Waterford,WAT
Weston Airfield,53.3522,-6.48611,IE,Leixlip,
Aarhus Airport,56.303331,10.618286,DK,Aarhus,AAR
Billund Airport,55.740335,9.157019,DK,Billund,BLL
Copenhagen Kastrup Airport,55.617900848389,12.656000137329,DK,Copenhagen,CPH
Esbjerg Airport,55.525902,8.5534,DK,Esbjerg,EBJ
Midtjyllands Airport / Air Base Karup,56.297139,9.104311,DK,Karup,KRP
Lolland Falster Maribo Airport,54.699447,11.438163,DK,Rødby,MRW
Odense Hans Christian Andersen Airport,55.475307,10.327206,DK,Odense,ODE
Copenhagen Roskilde Airport,55.585602,12.1314,DK,Roskilde,RKE
Bornholm Airport,55.063301,14.7596,DK,Rønne,RNN
Sønderborg Airport,54.96440124511719,9.791729927062988,DK,Sønderborg,SGD
Sindal Airport,57.503502,10.2294,DK,Sindal,CNL
Skrydstrup Air Base,55.221048,9.26702,DK,Vojens,SKS
Skive Airport,56.550201,9.17298,DK,Skive,SQW
Thisted Airport,57.06880187988281,8.705220222473145,DK,Thisted,TED
Kolding Vamdrup Airfield,55.436298,9.33092,DK,Kolding / Vamdrup,
Vágar Airport,62.063256,-7.275782,FO,Vágar,FAE
Stauning Vestjylland  Airport,55.990101,8.35391,DK,Skjern,STA
Aalborg Airport,57.094763,9.84993,DK,Aalborg,AAL
Luxembourg-Findel International Airport,49.6233333,6.2044444,LU,Luxembourg,LUX
"Ålesund Airport, Vigra",62.5625,6.1197,NO,Ålesund,AES
"Andøya Airport, Andenes",69.292503,16.144199,NO,Andenes,ANX
Alta Airport,69.976097,23.3717,NO,Alta,ALF
"Brønnøysund Airport, Brønnøy",65.461098,12.2175,NO,Brønnøy,BNN
Bodø Airport,67.269203,14.3653,NO,Bodø,BOO
"Bergen Airport, Flesland",60.2934,5.21814,NO,Bergen,BGO
Båtsfjord Airport,70.60025,29.692612,NO,Båtsfjord,BJF
Berlevåg Airport,70.871517,29.034097,NO,Berlevåg,BVG
"Kristiansand Airport, Kjevik",58.204201,8.08537,NO,Kjevik,KRS
Bardufoss Airport,69.055801,18.5404,NO,Målselv,BDU
"Harstad/Narvik Airport, Evenes",68.491302490234,16.678100585938,NO,Evenes,EVE
"Fagernes Airport, Leirin",61.015598,9.28806,NO,Fagernes,VDB
Florø Airport,61.583599090576,5.0247201919556,NO,Florø,FRO
"Oslo Airport, Gardermoen",60.193901,11.1004,NO,Oslo,OSL
"Haugesund Airport, Karmøy",59.345299,5.20836,NO,Karmøy,HAU
Hammerfest Airport,70.679703,23.6686,NO,Hammerfest,HFT
"Honningsvåg Airport, Valan",71.009697,25.983601,NO,Honningsvåg,HVG
"Kristiansund Airport, Kvernberget",63.111801,7.82452,NO,Kvernberget,KSU
"Kirkenes Airport, Høybuktmoen",69.7258,29.8913,NO,Kirkenes,KKN
Leknes Airport,68.152496337891,13.609399795532,NO,Leknes,LKN
Mehamn Airport,71.029701,27.8267,NO,Mehamn,MEH
"Molde Airport, Årø",62.744701,7.2625,NO,Årø,MOL
"Mosjøen Airport, Kjærstad",65.783997,13.2149,NO,Mosjøen,MJF
"Lakselv Airport, Banak",70.068802,24.973499,NO,Lakselv,LKL
Notodden Airport,59.565071,9.213152,NO,Notodden,NTB
Ørland Airport,63.69889831542969,9.604000091552734,NO,Ørland,OLA
"Ørsta-Volda Airport, Hovden",62.180000305176,6.0741000175476,NO,Ørsta,HOV
"Mo i Rana Airport, Røssvoll",66.363899230957,14.301400184631,NO,Mo i Rana,MQN
"Rørvik Airport, Ryum",64.838302612305,11.14610004425,NO,Rørvik,RVK
Røros Airport,62.578399658203,11.342300415039,NO,Røros,RRS
"Moss Airport, Rygge",59.378817,10.785439,NO,Oslo,RYG
"Svalbard Airport, Longyear",78.246101379395,15.465600013733,NO,Longyearbyen,LYR
"Svolvær Airport, Helle",68.243301,14.6692,NO,Svolvær,SVJ
"Stokmarknes Airport, Skagen",68.578827,15.033417,NO,Hadsel,SKN
Skien Airport,59.185001,9.56694,NO,Geiteryggen,SKE
"Stord Airport, Sørstokken",59.791901,5.34085,NO,Leirvik,SRP
Sørkjosen Airport,69.786797,20.9594,NO,Sørkjosen,SOJ
"Vardø Airport, Svartnes",70.3554,31.044901,NO,Vardø,VAW
"Sandnessjøen Airport, Stokka",65.956802,12.4689,NO,Alstahaug,SSJ
"Tromsø Airport, Langnes",69.683296,18.9189,NO,Tromsø,TOS
"Sandefjord Airport, Torp",59.186699,10.2586,NO,Torp,TRF
"Trondheim Airport, Værnes",63.457802,10.924,NO,Trondheim,TRD
Vadsø Airport,70.0653,29.8447,NO,Vadsø,VDS
Yan'an Nanniwan Airport,36.479413,109.464083,CN,Yan'an (Baota),ENY
"Stavanger Airport, Sola",58.876701,5.63778,NO,Stavanger,SVG
Bydgoszcz Ignacy Jan Paderewski Airport,53.096802,17.977699,PL,Białe Błota,BZG
Cewice Naval Air Base,54.417664,17.773512,PL,Siemirowice,
Deblin Military Air Base,51.551399231,21.8936004639,PL,Dęblin,
Gdańsk Lech Wałęsa Airport,54.377602,18.4662,PL,Gdańsk,GDN
Inowroclaw Military Air Base,52.8293991089,18.3306007385,PL,,
Kraków John Paul II International Airport,50.077702,19.7848,PL,Balice,KRK
Krzesiny Military Air Base,52.331699,16.9664,PL,Poznań,
Katowice Wojciech Korfanty International Airport,50.476015,19.080705,PL,Ożarowice,KTW
Lublin Airport,51.240278,22.713611,PL,Lublin,LUZ
Łask Air Base,51.551701,19.1791,PL,Łask,
Łódź Władysław Reymont Airport,51.721901,19.3981,PL,Łódź,LCJ
Leźnica Wielka Air Base,52.004945,19.143792,PL,Leźnica Wielka,
Malbork Królewo Air Base,54.026598,19.135718,PL,Królewo,
Miroslawiec Military Air Base,53.3951,16.0828,PL,Mirosławiec,
Minsk Mazowiecki Military Air Base,52.1954994202,21.6558990479,PL,,
Modlin Airport,52.451099,20.6518,PL,Nowy Dwór Mazowiecki,WMI
Poznań-Ławica Airport,52.421598,16.823359,PL,Poznań,POZ
Powidz Military Air Base,52.380087,17.853155,PL,Powidz,
Warsaw Radom Airport,51.38937,21.214742,PL,Radom,RDO
Rzeszów-Jasionka Airport,50.109791,22.024155,PL,Jasionka,RZE
Solidarity Szczecin–Goleniów Airport,53.584702,14.9022,PL,Glewice,SZZ
Swidwin Military Air Base,53.790599823,15.8262996674,PL,,
Olsztyn-Mazury Airport,53.481899,20.9377,PL,Olsztyn,SZY
Tomaszów Mazowiecki Military Air Base,51.5844,20.097799,PL,Nowy Glinnik,
Warsaw Chopin Airport,52.165699,20.9671,PL,Warsaw,WAW
Copernicus Wrocław Airport,51.103719,16.882096,PL,Wrocław,WRO
Zielona Góra-Babimost Airport,52.1385,15.7986,PL,Nowe Kramsko,IEG
Folgueroles Airfield,41.9527,2.3072,ES,Folgueroles,
Malmen Air Base,58.402302,15.5257,SE,Linköping,
Ronneby Airport,56.266701,15.265,SE,Ronneby,RNB
Råda Air Base,58.4981,13.0532,SE,Råda,
Göteborg Landvetter Airport,57.6628,12.2798,SE,Göteborg,GOT
Jönköping Airport,57.757598876953125,14.068699836730955,SE,Jönköping,JKG
Säve Airport,57.7747,11.8704,SE,Göteborg,GSE
Skövde Airport,58.456402,13.9727,SE,Skövde,KVB
Trollhättan-Vänersborg Airport,58.31809997558594,12.345000267028809,SE,Trollhättan,THN
Såtenäs Air Base,58.426399,12.7144,SE,Såtenäs,
Karlskoga Airport,59.345901,14.4959,SE,,KSK
Mora Airport,60.957901,14.5114,SE,Mora,MXX
Stockholm Skavsta Airport,58.788601,16.912201,SE,Nyköping,NYO
Scandinavian Mountains Airport,61.158393,12.842503,SE,Malung-Sälen,SCR
Kristianstad Airport,55.9217,14.0855,SE,Kristianstad,KID
Kalmar Airport,56.685501,16.2876,SE,Kalmar,KLR
Malmö Sturup Airport,55.535564,13.376327,SE,Malmö,MMX
Halmstad Airport,56.69110107421875,12.820199966430664,SE,Halmstad,HAD
Växjö Kronoberg Airport,56.929100036621094,14.727999687194824,SE,Växjö,VXO
Gällivare Airport,67.13240051269531,20.814599990844727,SE,Gällivare,GEV
Kramfors-Sollefteå Höga Kusten Airport,63.048599,17.7689,SE,Nyland,KRF
Lycksele Airport,64.548302,18.7162,SE,Lycksele,LYC
Sundsvall-Härnösand Airport,62.528099060058594,17.443899154663086,SE,Sundsvall/ Härnösand,SDL
Örnsköldsvik Airport,63.40829849243164,18.989999771118164,SE,Örnsköldsvik,OER
Kiruna Airport,67.821998596191,20.336799621582,SE,Kiruna,KRN
Skellefteå Airport,64.62480163574219,21.076900482177734,SE,Skellefteå,SFT
Umeå Airport,63.791801452637,20.282800674438,SE,Umeå,UME
Vilhelmina South Lapland Airport,64.579102,16.833599,SE,Vilhelmina,VHM
Arvidsjaur Airport,65.59030151367188,19.28190040588379,SE,Arvidsjaur,AJR
Söderhamn Airport,61.261501,17.0991,SE,Söderhamn,SOO
Åre Östersund Airport,63.194135,14.500322,SE,Östersund,OSD
Örebro Airport,59.22370147705078,15.038000106811523,SE,Örebro,ORB
Karlstad Airport,59.444698,13.3374,SE,Karlstad,KSD
Stockholm Västerås Airport,59.58940124511719,16.63360023498535,SE,Stockholm / Västerås,VST
Luleå Airport,65.5438,22.122,SE,Luleå,LLA
Stockholm-Arlanda Airport,59.64849,17.928829,SE,Stockholm,ARN
Stockholm-Bromma Airport,59.354400634765625,17.941699981689453,SE,Stockholm,BMA
Dala Airport,60.422001,15.5152,SE,Borlange,BLE
Gävle Sandviken Airport,60.5933,16.951401,SE,Gävle / Sandviken,GVX
Linköping City Airport,58.4062004089,15.6805000305,SE,Linköping,LPI
Norrköping Airport,58.586299896240234,16.250600814819336,SE,Norrköping,NRK
Torsby Airport,60.1576,12.9913,SE,Torsby,TYF
Eskilstuna Airport,59.351101,16.708401,SE,Eskilstuna,EKT
Visby Airport,57.662799835205,18.346200942993,SE,Visby,VBY
Ängelholm-Helsingborg Airport,56.29610061645508,12.847100257873535,SE,Ängelholm,AGH
Ljungbyhed Airfield,56.082802,13.2125,SE,Ljungbyhed,
Storuman Airport,64.960899,17.6966,SE,Storuman,SQO
Spangdahlem Air Base,49.976507,6.698413,DE,Trier,SPM
Ramstein Air Base,49.436901,7.60028,DE,Ramstein-Miesenbach,RMS
Bückeburg Air Base,52.2785,9.08217,DE,Bückeburg,
Celle Army Airfield,52.591202,10.0221,DE,,
Fritzlar Army Airfield,51.1146,9.286,DE,Fritzlar,FRZ
Laupheim Air Base,48.220299,9.91002,DE,Laupheim,
Niederstetten Army Air Base,49.39162,9.956747,DE,Niederstetten,
Faßberg Air Base,52.919399,10.185827,DE,Faßberg,
Grafenwöhr Army Air Field,49.6987,11.9402,DE,Grafenwöhr,
Hohenfels Army Airfield,49.216541,11.836064,DE,Hohenfels,
Sea-Airport Cuxhaven/Nordholz / Nordholz Naval Airbase,53.767689,8.659201,DE,Wurster Nordseeküste,FCN
Diepholz Air Base,52.585556,8.342222,DE,Diepholz,
Geilenkirchen Air Base,50.9608,6.04242,DE,Geilenkirchen,GKE
Hohn Air Base,54.312199,9.53817,DE,Hohn,
Rostock-Laage Airport,53.918201,12.2783,DE,Laage,RLG
Nörvenich Air Base,50.8312,6.65817,DE,Nörvenich,
Schleswig Air Base,54.459301,9.51633,DE,Jagel,WBG
Wittmundhafen Air Base,53.547798,7.66733,DE,Wittmund,
Wunstorf Air Base,52.457298,9.42717,DE,,
Wiesbaden Army Airfield,50.049800872802734,8.325400352478027,DE,Wiesbaden,WIE
Büchel Air Base,50.173801,7.06333,DE,Alflen,
Holzdorf Air Base,51.767799,13.1677,DE,Holzdorf,
Ingolstadt Manching Airport,48.7156982421875,11.534000396728516,DE,Manching,IGS
Lechfeld Air Base,48.185504,10.8612,DE,Graben,
Neuburg Air Base,48.710999,11.2115,DE,Neuburg an der Donau,
Daugavpils International Airport,55.944721,26.665001,LV,Daugavpils,DGP
Jēkabpils Air Base,56.534698,25.8925,LV,Jēkabpils,
Liepāja International Airport,56.517502,21.096901,LV,Liepāja,LPX
Riga International Airport,56.923599,23.9711,LV,Riga,RIX
Jūrmala Airport,56.9422,23.2239,LV,Tukums,
Kaunas International Airport,54.96390151977539,24.084800720214844,LT,Kaunas,KUN
Kėdainiai Air Base,55.31169891357422,23.95639991760254,LT,Kėdainiai,
Palanga International Airport,55.973201751708984,21.093900680541992,LT,Palanga,PLQ
Panevėžys Air Base,55.729400634765625,24.46080017089844,LT,Panevėžys,PNV
Šiauliai International Airport,55.89390182495117,23.395000457763672,LT,Šiauliai,SQQ
Barysiai Airfield,56.070599,23.5581,LT,Šiauliai,
Vilnius International Airport,54.634102,25.285801,LT,Vilnius,VNO
Alexander Bay Airport,-28.575001,16.5333,ZA,Alexander Bay,ALJ
Aggeneys Airport,-29.281799,18.8139,ZA,Aggeneys,AGZ
Bisho Airport,-32.897099,27.2791,ZA,Bisho,BIY
Bram Fischer International Airport,-29.092699,26.302401,ZA,Bloemfontain,BFN
Barberton Airport,-25.717147,30.974974,ZA,Umjindi (Barberton),
Cape Town International Airport,-33.9648017883,18.6016998291,ZA,Cape Town,CPT
Ben Schoeman Airport,-33.035599,27.825899,ZA,East London,ELS
Ermelo Airport,-26.4955997467041,29.979799270629883,ZA,Ermelo,
Ficksburg Sentraoes Airport,-28.82309913635254,27.908899307250977,ZA,Ficksburg,FCB
Grand Central Airport,-25.986299514799995,28.1401004791,ZA,Midrand,GCJ
George Airport,-34.0056,22.378902,ZA,George,GRJ
Rand Airport,-26.2425,28.151199,ZA,Johannesburg,QRA
Harrismith Airport,-28.2351,29.106199,ZA,Harrismith,HRS
P C Pelser Airport,-26.871099,26.718,ZA,Klerksdorp,KXE
Kimberley Airport,-28.802799224900003,24.7651996613,ZA,Kimberley,KIM
Kruger Mpumalanga International Airport,-25.3831996918,31.1056003571,ZA,Mpumalanga,MQP
Johan Pienaar Airport,-27.45669937133789,23.411399841308594,ZA,Kuruman,KMH
Kleinsee Airport,-29.6884002686,17.093999862700002,ZA,Kleinsee,KLZ
Lanseria International Airport,-25.938499,27.9261,ZA,Johannesburg,HLA
Lime Acres Finsch Mine Airport,-28.36009979248047,23.43910026550293,ZA,Lime Acres,LMR
King Shaka International Airport,-29.6144444444,31.1197222222,ZA,Durban,DUR
Langebaanweg Airport,-32.968898773199996,18.1602993011,ZA,Langebaanweg,SDB
Ladysmith Airport,-28.5816993713,29.7497005463,ZA,Ladysmith,LAY
Malamala Airport,-24.816866,31.544085,ZA,Malamala,AAM
Margate Airport,-30.8574008942,30.343000412,ZA,Margate,MGH
Mmabatho International Airport,-25.798400878900004,25.548000335699996,ZA,Mafeking,MBD
Morningside Farm Airport,-25.7045001984,26.9090003967,ZA,Silveroaks,
Mkuze Airport,-27.626100540161133,32.0443000793457,ZA,Mkuze,MZQ
Newcastle Airport,-27.7705993652,29.976900100699996,ZA,Newcastle,NCS
Oudtshoorn Airport,-33.6069984436,22.188999176,ZA,Oudtshoorn,OUH
O.R. Tambo International Airport,-26.1392,28.246,ZA,Johannesburg,JNB
Chief Dawid Stuurman International Airport,-33.984901,25.6173,ZA,Gqeberha (Port Elizabeth),PLZ
Plettenberg Bay Airport,-34.08816,23.328723,ZA,Plettenberg Bay,PBZ
Hendrik Van Eck Airport,-23.9372005463,31.1553993225,ZA,Phalaborwa,PHW
Pietersburg Municipal Airport,-23.9260997772,29.4843997955,ZA,Polokwane,
Port St Johns Airport,-31.60612,29.52175,ZA,Port St Johns,JOH
Pietermaritzburg Airport,-29.649000167799997,30.3987007141,ZA,Pietermaritzburg,PZB
Polokwane International Airport,-23.845269,29.458615,ZA,Polokwane,PTG
Potchefstroom Airport,-26.670999527,27.0818996429,ZA,Potchefstroom,PCF
Queenstown Airport,-31.92020034790039,26.882200241088867,ZA,Queenstown,UTW
Richards Bay Airport,-28.740999221800003,32.0920982361,ZA,Richards Bay,RCB
Rustenburg Airport,-25.6443004608,27.271099090599996,ZA,Rustenburg,
Robertson Airport,-33.812199,19.9028,ZA,Robertson,ROD
Springbok Airport,-29.689300537109375,17.939599990844727,ZA,Springbok,SBU
Secunda Airport,-26.52409935,29.170099258399997,ZA,Secunda,ZEC
Saldanha/Vredenburg Airport,-32.9641,17.969299,ZA,Saldanha-Vredenburg,
Swartkop Air Force Base,-25.8097,28.1646,ZA,Pretoria,
Sishen Airport,-27.6486,22.9993,ZA,Sishen,SIS
Skukuza Airport,-24.960899353,31.5886993408,ZA,Skukuza,SZK
Tzaneen Airport,-23.8244,30.3293,ZA,Tzaneen,LTA
Prince Mangosuthu Buthelezi Airport,-28.3206005096,31.4165000916,ZA,Ulundi,ULD
Pierre Van Ryneveld Airport,-28.39909935,21.2602005005,ZA,Upington,UTN
K. D. Matanzima Airport,-31.5463631849,28.6733551025,ZA,Mthatha,UTT
Vryburg Airport,-26.9824008942,24.7287998199,ZA,Vyrburg,VRU
Virginia Airport,-29.770599,31.058399,ZA,Durban,VIR
Vredendal Airport,-31.641000747680664,18.5447998046875,ZA,Vredendal,VRE
Vereeniging Airport,-26.566400528,27.9608001709,ZA,Vereeniging,
Wonderboom Airport,-25.6539,28.224199,ZA,Pretoria,PRY
Waterkloof Air Force Base,-25.829999923699997,28.2224998474,ZA,Pretoria,WKF
Ysterplaat Air Force Base,-33.90019989013672,18.498300552368164,ZA,Cape Town,
P G Matante Intl,-21.15914,27.468545,BW,Francistown,FRW
Jwaneng Airport,-24.602301,24.691,BW,Jwaneng,JWA
Kasane Airport,-17.832899,25.162399,BW,Kasane,BBK
Maun Airport,-19.97260093688965,23.43110084533691,BW,Maun,MUB
Sir Seretse Khama International Airport,-24.555201,25.9182,BW,Gaborone,GBE
Sua Pan Airport,-20.5534,26.115801,BW,Sowa,SXN
Selebi Phikwe Airport,-22.0583,27.8288,BW,Selebi Phikwe,PKW
Maya-Maya Airport,-4.251699924468994,15.253000259399414,CG,Brazzaville,BZV
Oyo Ollombo Airport,-1.226666,15.91,CG,Oyo,OLL
Owando Airport,-0.53135,15.9501,CG,Owando,FTX
Ouesso Airport,1.61599,16.037901,CG,,OUE
Ngot Nzoungou Airport,-4.20635,12.6599,CG,Dolisie,DIS
Antonio Agostinho-Neto International Airport,-4.81603,11.8866,CG,Pointe Noire,PNR
Matsapha Airport,-26.528999,31.307501,SZ,Manzini,MTS
King Mswati III International Airport,-26.358611,31.716944,SZ,Mpaka,SHO
Bangui M'Poko International Airport,4.39847993850708,18.518800735473633,CF,Bangui,BGF
Berbérati Airport,4.2215800285339355,15.786399841308594,CF,Berbérati,BBT
Bata Airport,1.90547,9.80568,GQ,Bata,BSG
Malabo Airport,3.755270004272461,8.708720207214355,GQ,Malabo,SSG
RAF Ascension Island,-7.9696,-14.3937,SH,Cat Hill,ASI
Sir Seewoosagur Ramgoolam International Airport,-20.430201,57.683601,MU,Plaine Magnien,MRU
Sir Charles Gaetan Duval Airport,-19.7577,63.361,MU,Port Mathurin,RRG
Diego Garcia Naval Support Facility,-7.31327,72.411102,IO,Diego Garcia,NKW
Tiko Airport,4.08919000626,9.3605298996,CM,Tiko,TKC
Douala International Airport,4.0060801506,9.71947956085,CM,Douala,DLA
Salak Airport,10.45139980316162,14.257399559020996,CM,Maroua,MVR
Foumban Nkounja Airport,5.63692,10.7508,CM,Foumban,FOM
N'Gaoundéré Airport,7.357009887695312,13.559200286865234,CM,N'Gaoundéré,NGE
Garoua International Airport,9.33588981628418,13.370100021362305,CM,Garoua,GOU
Bafoussam Airport,5.536920070650001,10.3545999527,CM,Bafoussam,BFX
Bamenda Airport,6.03924,10.1226,CM,Bamenda,BPC
Yaoundé Airport,3.83604,11.5235,CM,Yaoundé,YAO
Yaoundé Nsimalen International Airport,3.722559928894043,11.553299903869627,CM,Yaoundé,NSI
Kasompe Airport,-12.572799682617,27.893899917603,ZM,Chingola,CGJ
Lusaka City Airport,-15.4138,28.3307,ZM,Lusaka,
Harry Mwanga Nkumbula International Airport,-17.8218,25.822701,ZM,Livingstone,LVI
Kenneth Kaunda International Airport,-15.330833,28.452722,ZM,Lusaka,LUN
Mfuwe Airport,-13.258899688720703,31.936599731445312,ZM,Mfuwe,MFU
Mongu Airport,-15.2545,23.1623,ZM,Mongu,MNR
Peter Zuze Air Force Base,-12.997222,28.663889,ZM,Ndola,
Simon Mwansa Kapwepwe International Airport,-12.961667,28.516667,ZM,Ndola,NLA
Southdowns Airport,-12.9005,28.1499,ZM,Kitwe,KIW
Prince Said Ibrahim International Airport,-11.5337,43.2719,KM,Moroni,HAH
Mohéli Bandar Es Eslam Airport,-12.2981,43.766399,KM,Fomboni,NWA
Ouani Airport,-12.131047,44.430044,KM,Ouani,AJN
Dzaoudzi Pamandzi International Airport,-12.809319,45.281815,YT,Dzaoudzi,DZA
Roland Garros Airport,-20.890087,55.518894,RE,Sainte-Marie,RUN
Pierrefonds Airport,-21.319362,55.422506,RE,Saint-Pierre,ZSE
Ivato Airport,-18.7969,47.478802,MG,Antananarivo,TNR
Miandrivazo Airport,-19.562799,45.450802,MG,Miandrivazo,ZVA
Sainte Marie Airport,-17.093901,49.8158,MG,Vohilava,SMS
Toamasina Ambalamanasy Airport,-18.109501,49.392502,MG,Toamasina,TMM
Morondava Airport,-20.2847,44.3176,MG,Morondava,MOQ
Arrachart Airport,-12.3494,49.291698,MG,Antisiranana,DIE
Mananara Nord Airport,-16.16390037536621,49.773799896240234,MG,Mananara Nord,WMR
Andapa Airport,-14.651700019836426,49.620601654052734,MG,,ZWA
Antsirabe Airport,-14.9994,50.320202,MG,Antsirabe,ANM
Analalava Airport,-14.629514,47.763555,MG,Analalava,HVA
Amborovy Airport,-15.666842,46.351233,MG,Mahajanga,MJN
Fascene Airport,-13.3121,48.3148,MG,Nosy Be,NOS
Besalampy Airport,-16.74453,44.482484,MG,Besalampy,BPY
Maroantsetra Airport,-15.437742,49.689081,MG,Maroantsetra,WMN
Sambava Airport,-14.2786,50.174702,MG,Sambava,SVB
Vohemar Airport,-13.3758,50.0028,MG,Vohemar,VOH
Ambalabe Airport,-14.898799896240234,47.993900299072266,MG,Antsohihy,WAI
Tôlanaro Airport,-25.038099,46.9561,MG,Tôlanaro,FTU
Fianarantsoa Airport,-21.441601,47.111698,MG,Fianarantsoa,WFI
Manakara Airport,-22.119699,48.021702,MG,Manakara,WVK
Mananjary Airport,-21.201799,48.358299,MG,Mananjary,MNJ
Morombe Airport,-21.753837,43.374753,MG,Morombe,MXM
Toliara Airport,-23.3834,43.7285,MG,Toliara,TLE
Mbanza Congo Airport,-6.269899845123291,14.246999740600586,AO,Mbanza Congo,SSY
Benguela 17th of September Airport,-12.609,13.4037,AO,Benguela,BUG
Cabinda Airport,-5.59699010848999,12.188400268554688,AO,Cabinda,CAB
Catumbela Airport,-12.4792,13.4869,AO,Catumbela,CBT
Dundo Airport,-7.400889873504639,20.818500518798828,AO,Chitato,DUE
Ngjiva Pereira Airport,-17.0435009003,15.683799743700002,AO,Ngiva,VPE
Nova Lisboa Airport,-12.808899879455566,15.760499954223633,AO,Huambo,NOV
Kuito Airport,-12.404600143433,16.947399139404,AO,Kuito,SVP
Quatro de Fevereiro International Airport,-8.85837,13.2312,AO,Luanda,LAD
Malanje Airport,-9.525090217590332,16.312400817871094,AO,Malanje,MEG
Menongue Airport,-14.657600402832031,17.71980094909668,AO,Menongue,SPP
Welwitschia Mirabilis International Airport,-15.2612,12.1468,AO,Moçâmedes,MSZ
Negage Airport,-7.754509925842285,15.287699699401855,AO,Negage,GXG
Porto Amboim Airport,-10.722,13.7655,AO,Port Amboim,PBN
Saurimo Airport,-9.68907,20.4319,AO,Saurimo,VHC
Soyo Airport,-6.141089916229248,12.371800422668455,AO,Soyo,SZA
Sumbe Airport,-11.1679,13.8475,AO,Sumbe,NDD
Lubango Airport,-14.924699783325195,13.574999809265137,AO,Lubango,SDD
Luena Airport,-11.7681,19.897699,AO,Luena,LUO
Uige Airport,-7.60307,15.0278,AO,Uige,UGO
Xangongo Airport,-16.755399703979492,14.965299606323242,AO,Xangongo,XGN
Koulamoutou Mabimbi Airport,-1.1846100091934,12.441300392151,GA,Koulamoutou,KOU
Mouilla Ville Airport,-1.845139980316162,11.056699752807615,GA,Mouila,MJL
Oyem Airport,1.5431100130081177,11.58139991760254,GA,Oyem,OYE
Okondja Airport,-0.665214,13.6731,GA,Okondja,OKN
Lambarene Airport,-0.704389,10.2457,GA,Lambarene,LBQ
Bitam Airport,2.07564,11.4932,GA,Bitam,BMM
Port Gentil Airport,-0.7117390036582947,8.754380226135254,GA,Port Gentil,POG
Omboue Hospital Airport,-1.57473,9.26269,GA,Omboue,OMB
Makokou Airport,0.5792109966278076,12.890899658203123,GA,Makokou,MKU
Libreville Leon M'ba International Airport,0.458600014448,9.4122800827,GA,Libreville,LBV
M'Vengue El Hadj Omar Bongo Ondimba International Airport,-1.6561599969863892,13.437999725341797,GA,Franceville,MVB
Principe Airport,1.66294,7.41174,ST,São Tomé & Príncipe,PCP
São Tomé International Airport,0.378175,6.71215,ST,São Tomé,TMS
Beira Airport,-19.79640007019043,34.90760040283203,MZ,Beira,BEW
Chimoio Airport,-19.15130043029785,33.42900085449219,MZ,Chimoio,VPY
Inhambane Airport,-23.8764,35.408501,MZ,Inhambane,INH
Lichinga Airport,-13.274,35.2663,MZ,Lichinga,VXC
Maputo Airport,-25.920799,32.572601,MZ,Maputo,MPM
Mueda Airport,-11.6729,39.563099,MZ,Mueda,MUD
Mocímboa da Praia Airport,-11.3618,40.3549,MZ,Mocímboa da Praia,MZB
Nampula Airport,-15.105600357055664,39.28179931640625,MZ,Nampula,APL
Pemba Airport,-12.991762161254885,40.52401351928711,MZ,Pemba / Porto Amelia,POL
Quelimane Airport,-17.855499267578125,36.86909866333008,MZ,Quelimane,UEL
Chingozi Airport,-16.104799270629883,33.640201568603516,MZ,Tete,TET
Vilankulo Airport,-22.018400192260746,35.31330108642578,MZ,Vilanculo,VNX
Seychelles International Airport,-4.67434,55.521801,SC,Mahe Island,SEZ
Praslin Island Airport,-4.319256,55.691561,SC,Praslin Island,PRI
Ouadi Doum Air Base,18.52793,20.188644,TD,Wadi Doum,
Abeche Airport,13.847,20.844299,TD,Abeche,AEH
Moundou Airport,8.62441,16.0714,TD,Moundou,MQQ
N'Djamena International Airport,12.1337,15.034,TD,N'Djamena,NDJ
Faya-Largeau Airport,17.917101,19.111099,TD,Faya-Largeau,FYT
Joshua Mqabuko Nkomo International Airport,-20.017401,28.617901,ZW,Bulawayo,BUQ
Buffalo Range Airport,-21.008101,31.5786,ZW,Chiredzi,BFO
Victoria Falls International Airport,-18.09589958190918,25.839000701904297,ZW,Victoria Falls,VFA
Robert Gabriel Mugabe International Airport,-17.931801,31.0928,ZW,Harare,HRE
Kariba International Airport,-16.5198,28.885,ZW,Kariba,KAB
Mutoko Airport,-17.4319,32.184502,ZW,Mutoko,
Masvingo International Airport,-20.0553,30.8591,ZW,Masvingo,MVZ
Gweru - Thornhill Air Base,-19.436718,29.861945,ZW,Gweru,GWE
Hwange National Park Airport,-18.629899978637695,27.020999908447266,ZW,Hwange,HWN
Chileka International Airport,-15.679100036621094,34.9739990234375,MW,Blantyre,BLZ
Dwangwa Airport,-12.517527,34.131877,MW,Dwangwa,DWA
Karonga Airport,-9.953571,33.893264,MW,Karonga,KGJ
Lilongwe International Airport,-13.7894001007,33.78099823,MW,Lilongwe,LLW
Mangochi Airport,-14.483,35.266998,MW,Mangochi,MAI
Mzuzu Airport,-11.4447,34.011799,MW,Mzuzu,ZZU
Moshoeshoe I International Airport,-29.462299346923828,27.552499771118164,LS,Maseru,MSU
Arandis Airport,-22.461875,14.979322,,Arandis,ADI
Grootfontein Airport,-19.6022,18.1227,,Grootfontein,GFY
Katima Mulilo Airport,-17.634258,24.176688,,Mpacha,MPA
Keetmanshoop Airport,-26.539801,18.111401,,Keetmanshoop,KMP
Luderitz Airport,-26.687400817871097,15.242899894714355,,Luderitz,LUD
Mariental Airport,-24.6054,17.9254,,Mariental,
Ondangwa Airport,-17.878201,15.9526,,Ondangwa,OND
Oranjemund Airport,-28.5847,16.446699,,Oranjemund,OMD
Rundu Airport,-17.956499099731,19.719400405884,,Rundu,NDU
Tsumeb Airport,-19.26189994812,17.732500076294,,Tsumeb,TSB
Walvis Bay Airport,-22.9799,14.6453,,Walvis Bay,WVB
Eros Airport,-22.612199783325195,17.080400466918945,,Windhoek,ERS
Hosea Kutako International Airport,-22.4799,17.4709,,Windhoek,WDH
Ndjili International Airport,-4.38575,15.4446,CD,Kinshasa,FIH
Ndolo Airport,-4.32666015625,15.327500343323,CD,N'dolo,NLO
Bandundu Airport,-3.31132,17.381701,CD,Bandundu,FDU
Kikwit Airport,-5.03577,18.785601,CD,Kikwit,KKW
Mbandaka Airport,0.0226000007242,18.2887001038,CD,Mbandaka,MDK
Gbadolite Airport,4.252745,20.975271,CD,Gbadolite,BDT
Gemena Airport,3.23537,19.771299,CD,Gemena,GMA
Lisala Airport,2.17066,21.496901,CD,Lisala,LIQ
Bangoka International Airport,0.481638997793,25.3379993439,CD,Kisangani,FKI
Matari Airport,2.82761,27.588301,CD,Isiro,IRP
Bunia Airport,1.565743,30.220685,CD,Bunia,BUX
Buta Zega Airport,2.818058,24.793997,CD,Buta,BZU
Bukavu Kavumu Airport,-2.30898,28.8088,CD,Kamakombe,BKY
Goma International Airport,-1.66617,29.237929,CD,Goma,GOM
Kindu Airport,-2.91917991638,25.915399551399997,CD,Kindu,KND
Lubumbashi International Airport,-11.5913000107,27.5308990479,CD,Lubumbashi,FBM
Kolwezi Airport,-10.7659,25.505699,CD,Kolwezi,KWZ
Kalemie Airport,-5.87556,29.25,CD,Kalemie,FMI
Kamina Air Base,-8.64202,25.252899,CD,Lumwe,
Kananga Airport,-5.90005,22.4692,CD,Kananga,KGA
Mbuji Mayi Airport,-6.121240139010001,23.569000244099996,CD,Mbuji Mayi,MJM
Modibo Keita International Airport,12.5335,-7.94994,ML,Bamako,BKO
Gao Airport,16.2484,-0.005456,ML,,GAQ
Kayes Dag Dag Airport,14.4812,-11.4044,ML,,KYS
Mopti Ambodédjo International Airport,14.5128,-4.07956,ML,Sévaré,MZI
Timbuktu Airport,16.730499,-3.00758,ML,Timbuktu,TOM
Banjul International Airport,13.338,-16.652201,GM,Banjul,BJL
Fuerteventura Airport,28.4527,-13.8638,ES,El Matorral,FUE
El Hierro Airport,27.8148,-17.8871,ES,El Hierro Island,VDE
La Palma Airport,28.626499,-17.7556,ES,"Sta Cruz de la Palma, La Palma Island",SPC
Gran Canaria Airport,27.9319,-15.3866,ES,Gran Canaria Island,LPA
César Manrique-Lanzarote Airport,28.945499,-13.6052,ES,San Bartolomé,ACE
Tenerife Sur Airport,28.0445,-16.5725,ES,Tenerife,TFS
Tenerife Norte-Ciudad de La Laguna Airport,28.4827,-16.341499,ES,Tenerife,TFN
Ozurgeti Air Base,41.9291,41.863499,GE,Ozurgeti,
Senaki Air Base,42.2403057198,42.0454931259,GE,Senaki,
Melilla Airport,35.2798,-2.95626,ES,Melilla,MLN
Bo Airport,7.9444,-11.761,SL,Bo,KBS
Kenema Airport,7.896364,-11.174126,SL,Kenema,KEN
Lungi International Airport,8.61644,-13.1955,SL,Freetown (Lungi-Town),FNA
Yengema Airport,8.610469818115234,-11.04539966583252,SL,Yengema,WYE
Osvaldo Vieira International Airport,11.894800186157228,-15.65369987487793,GW,Bissau,OXB
Spriggs Payne Airport,6.28906,-10.7587,LR,Monrovia,MLW
Roberts International Airport,6.23379,-10.3623,LR,Monrovia,ROB
Al Massira Airport,30.322478,-9.412003,MA,Agadir (Temsia),AGA
Tan Tan Airport,28.44820022583008,-11.161299705505373,MA,Tan Tan,TTA
Bouarfa Airport,32.514306,-1.983056,MA,Bouarfa,UAR
Fes Saïss International Airport,33.927299,-4.97796,MA,Saïss,FEZ
Moulay Ali Cherif Airport,31.9475002289,-4.39833021164,MA,Errachidia,ERH
Bassatine Airport,33.879101,-5.51512,MA,Meknes,MEK
Oujda Angads Airport,34.789558,-1.926041,MA,Ahl Angad,OUD
Smara Airport,26.731987,-11.683655,EH,Smara,SMW
Rabat-Salé Airport,34.051498,-6.75152,MA,Rabat,RBA
Dakhla Airport,23.7183,-15.932,EH,Dakhla,VIL
Essaouira-Mogador Airport,31.397499,-9.68167,MA,Essaouira,ESU
Hassan I Airport,27.142467,-13.224947,EH,El Aaiún,EUN
Mohammed V International Airport,33.3675,-7.58997,MA,Casablanca,CMN
Nador Al Aaroui International Airport,34.9888,-3.02821,MA,Al Aaroui,NDR
Menara Airport,31.606899261499997,-8.03629970551,MA,Marrakech,RAK
Kenitra Air Base,34.298901,-6.59588,MA,Kenitra,NNA
Ouarzazate Airport,30.9391002655,-6.909430027010001,MA,Ouarzazate,OZZ
Golog Maqên Airport,34.418066,100.301144,CN,Golog (Maqên),GMQ
Cherif Al Idrissi Airport,35.177101135253906,-3.83951997756958,MA,Al Hoceima,AHU
Sania Ramel Airport,35.594299,-5.32002,MA,Tétouan,TTU
Tangier Ibn Battuta Airport,35.731741,-5.921459,MA,Tangier,TNG
Blaise Diagne International Airport,14.67,-17.073333,SN,Dakar,DSS
Ziguinchor Airport,12.5556,-16.281799,SN,Ziguinchor,ZIG
Cap Skirring Airport,12.39533,-16.748,SN,Cap Skirring,CSK
Kaolack Airport,14.146900177001951,-16.051300048828125,SN,Kaolack,KLC
Léopold Sédar Senghor International Airport,14.7397,-17.4902,SN,Dakar,DKR
Ouro Sogui Airport,15.5936,-13.3228,SN,Ouro Sogui,MAX
Saint Louis Airport,16.049814,-16.461039,SN,Saint Louis,XLS
Bakel Airport,14.847299575805664,-12.468299865722656,SN,Bakel,BXE
Kédougou Airport,12.57229995727539,-12.22029972076416,SN,Kédougou,KGG
Tambacounda Airport,13.73680019378662,-13.65310001373291,SN,Tambacounda,TUD
Nouakchott–Oumtounsy International Airport,18.31,-15.969722,MR,Nouakchott,NKC
Atar International Airport,20.506799697875977,-13.04319953918457,MR,Atar,ATR
Nouadhibou International Airport,20.9330997467041,-17.030000686645508,MR,Nouadhibou,NDB
Conakry International Airport,9.57689,-13.612,GN,Conakry,CKY
Amílcar Cabral International Airport,16.7414,-22.9494,CV,Espargos,SID
Rabil Airport,16.136499404907227,-22.888900756835938,CV,Rabil,BVC
Maio Airport,15.15590000152588,-23.213699340820312,CV,Vila do Maio,MMO
Nelson Mandela International Airport,14.941126,-23.484728,CV,Praia,RAI
Preguiça Airport,16.588852,-24.284132,CV,Preguiça,SNE
São Pedro Airport,16.8332,-25.0553,CV,São Pedro,VXE
Addis Ababa Bole International Airport,8.97789,38.799301,ET,Addis Ababa,ADD
Arba Minch Airport,6.03939,37.5905,ET,Arba Minch,AMH
Axum Airport,14.1468,38.7728,ET,Axum,AXU
Bahir Dar Airport,11.6081,37.321602,ET,Bahir Dar,BJR
Aba Tenna Dejazmach Yilma International Airport,9.624699592590332,41.85419845581055,ET,Dire Dawa,DIR
Gambela Airport,8.12876,34.563099,ET,Gambela,GMB
Gondar Airport,12.5199,37.433998,ET,Azezo,GDQ
Gode Airport,5.93513011932,43.5786018372,ET,Gode,GDE
Harar Meda Airport,8.7163,39.0059,ET,Debre Zeyit,QHR
Wilwal International Airport,9.3325,42.9121,ET,Jijiga,JIJ
Jimma Airport,7.66609001159668,36.81660079956055,ET,Jimma,JIM
Kebri Dahar Airport,6.732577,44.241339,ET,Kebri Dahar,ABK
Hawassa International Airport,7.099869,38.396187,ET,Hawassa,AWA
Alula Aba Nega Airport,13.4674,39.533501,ET,Mekelle,MQX
Asosa Airport,10.018500328063965,34.586299896240234,ET,Asosa,ASO
Bujumbura Melchior Ndadaye International Airport,-3.32402,29.318501,BI,Bujumbura,BJM
Egal International Airport,9.513207,44.082389,SO,Hargeisa,HGA
Berbera Airport,10.385035,44.936723,SO,Berbera,BBO
Kismayo Airport,-0.377353,42.459202,SO,Kismayo,KMU
Aden Adde International Airport,2.0144400596618652,45.3046989440918,SO,Mogadishu,MGQ
Djibouti-Ambouli Airport,11.5473,43.1595,DJ,Djibouti City,JIB
Birma Air Base,30.836599,30.936001,EG,Tanta,
Gebel El Basur Air Base,30.540501,30.5602,EG,Markaz Ad Delingat,
Al Mansurah Airbase,30.9676,31.4342,EG,Mansoura,
Abu Suwayr Air Base,30.57270050048828,32.095298767089844,EG,Abu Suwayr,
Bardawil International Airport,30.410714,33.15535,EG,El Hassana,RDL
Bilbeis Air Base,30.394899,31.6014,EG,Bilbeis,
Quesna Airport,30.579,31.1292,EG,Quesna,
El Alamein International Airport,30.924324,28.46161,EG,El Alamein,DBB
El Arish International Airport,31.078565,33.836791,EG,El Arish,AAC
Asyut International Airport,27.050818,31.016309,EG,Asyut,ATZ
Almaza Air Force Base,30.091702,31.359739,EG,El Nozha,
Borj El Arab International Airport,30.93249,29.696437,EG,Alexandria,HBE
Abu Simbel Airport,22.367657,31.609962,EG,Abu Simbel,ABS
Bani Sweif Air Base,29.20224,31.013471,EG,Bani Sweif,
Cairo International Airport,30.111534,31.396694,EG,Cairo,CAI
Capital International Airport,30.074293,31.84296,EG,New Cairo,CCE
Cairo West Air Base,30.107943,30.915222,EG,Cairo,
Hurghada International Airport,27.176776,33.796692,EG,Hurghada,HRG
El Jora Airport,31.078138,34.153131,EG,El Jora,EGH
Jiyanklis Air Base,30.819799,30.1912,EG,Abu El Matamir,
Ismailia Air Base,30.597951,32.235689,EG,Ismailia,
Luxor International Airport,25.674629,32.700012,EG,Luxor,LXR
Marsa Alam International Airport,25.555548,34.59245,EG,Marsa Alam,RMF
Marsa Matruh International Airport,31.325464,27.221716,EG,Marsa Matruh,MUH
Port Said International Airport,31.279285,32.240582,EG,Port Said,PSD
Saint Catherine International Airport,28.684601,34.062681,EG,Saint Catherine,SKV
Suhaj Mubarak International Airport,26.339115,31.737624,EG,Suhaj,HMB
Sharm El Sheikh International Airport,27.977272,34.394717,EG,Sharm El Sheikh,SSH
Aswan International Airport,23.968137,32.824445,EG,Aswan,ASW
Sphinx International Airport,30.108078,30.889252,EG,Al Jiza,SPX
Taba International Airport,29.594496,34.775752,EG,Taba,TCP
Asmara International Airport,15.291899681091309,38.910701751708984,ER,Asmara,ASM
Massawa International Airport,15.670000076293944,39.37009811401367,ER,Massawa,MSW
Assab International Airport,13.071800231933594,42.64500045776367,ER,Asab,ASA
Huai'an Lianshui International Airport,33.790833,119.125,CN,Huai'an,HIA
Juba International Airport,4.87201,31.601101,SS,Juba,JUB
Amboseli Airport,-2.645050048828125,37.25310134887695,KE,Amboseli National Park,ASV
Eldoret International Airport,0.4044579863548279,35.23889923095703,KE,Eldoret,EDL
Jomo Kenyatta International Airport,-1.31923997402,36.9277992249,KE,Nairobi,NBO
Kisumu Airport,-0.0861390009522438,34.72890090942383,KE,Kisumu,KIS
Kitale Airport,0.971989,34.958599,KE,Kitale,KTL
Lokichoggio Airport,4.20412015914917,34.348201751708984,KE,Lokichoggio,LKG
Lodwar Airport,3.12197,35.6087,KE,Lodwar,LOK
Manda Airport,-2.252431,40.912892,KE,Lamu,LAU
Malindi Airport,-3.2293100357055664,40.10169982910156,KE,Malindi,MYD
Moi International Airport,-4.03483,39.5942,KE,Mombasa,MBA
Mara Serena Lodge Airstrip,-1.406111,35.008057,KE,Masai Mara,MRE
Nairobi Wilson Airport,-1.321720004081726,36.81480026245117,KE,Nairobi,WIL
Nanyuki Airport,-0.062399,37.041008,KE,Nanyuki,NYK
Moi Air Base,-1.27726995945,36.8623008728,KE,Nairobi,
Wajir Airport,1.73324,40.091599,KE,Wajir,WJR
Matan al-Sarra Air Base,21.6877,21.8309,LY,,
Bombah Airport,32.4529,23.118601,LY,Bombah,
Okba Ibn Nafa Air Base,32.473400116,11.8978996277,LY,,
Sirt International Airport / Ghardabiya Airbase,31.063499,16.594999,LY,Sirt,SRX
Ghat Airport,25.1455993652,10.1426000595,LY,Ghat,GHT
Kufra Airport,24.178699493408203,23.31399917602539,LY,Kufra,AKF
Benina International Airport,32.096802,20.269501,LY,Benina,BEN
Mitiga International Airport,32.89177,13.287878,LY,Tripoli,MJI
Al Abraq International Airport,32.7887,21.9643,LY,Al Albraq,LAQ
Sabha Airport,26.992452,14.466162,LY,Sabha,SEB
Marsa al Brega Airport,30.378099,19.576401,LY,Marsa al Brega,LMQ
Ghadames East Airport,30.15169906616211,9.715310096740724,LY,Ghadames,LTD
Gisenyi Airport,-1.6771999597549438,29.258899688720703,RW,Gisenyi,GYI
Kigali International Airport,-1.96863,30.1395,RW,Kigali,KGL
Kamembe Airport,-2.462239980697632,28.907899856567383,RW,Kamembe,KME
Dongola Airport,19.153900146499996,30.4300994873,SD,Dongola,DOG
Paloich Airport,10.529167,32.500556,SS,Higleig,
El Fasher Airport,13.61489963531494,25.32460021972656,SD,El Fasher,ELF
Kassala Airport,15.387499809265137,36.328800201416016,SD,Kassala,KSL
Merowe Airport,18.443333,31.843333,SD,Merowe,MWE
Nyala Airport,12.0535,24.9562,SD,Nyala,UYL
El-Obeid Airport,13.1532,30.2327,SD,El-Obeid,EBD
Port Sudan New International Airport,19.4335994720459,37.234100341796875,SD,Port Sudan,PZU
Sabera Geneina Airport,13.4774,22.53722,SD,Geneina,
Khartoum International Airport,15.5895,32.5532,SD,Khartoum,KRT
Malakal Airport,9.55897,31.652201,SS,Malakal,MAK
Wau Airport,7.72583,27.975,SS,Wau,WUU
Arusha Airport,-3.3677899837493896,36.63330078125,TZ,Arusha,ARK
Julius Nyerere International Airport,-6.87811,39.202599,TZ,Dar es Salaam,DAR
Dodoma Airport,-6.17044,35.752602,TZ,Dodoma,DOD
Songwe Airport,-8.919942,33.273981,TZ,Mbeya,MBI
Iringa Airport,-7.66863,35.752102,TZ,Nduli,IRI
Kilimanjaro International Airport,-3.42941,37.074501,TZ,Arusha,JRO
Lake Manyara Airport,-3.37631,35.818298,TZ,Lake Manyara National Park,LKY
Mtwara Airport,-10.336204,40.181997,TZ,Mtwara,MYW
Mwanza Airport,-2.4444899559020996,32.932701110839844,TZ,Mwanza,MWZ
Pemba Airport,-5.25726,39.811401,TZ,Chake Chake,PMA
Tanga Airport,-5.09236,39.071201,TZ,Tanga,TGT
Abeid Amani Karume International Airport,-6.22202,39.224899,TZ,Zanzibar,ZNZ
Kalocsa-Foktő Airfield,46.549613,18.942421,HU,Kalocsa/Foktő,
Arua Airport,3.049152,30.911714,UG,Arua,RUA
Entebbe International Airport,0.042386,32.443501,UG,Kampala,EBB
Gulu Airport,2.8055601119995117,32.27180099487305,UG,Gulu,ULU
Soroti Airport,1.7276899814605713,33.622798919677734,UG,Soroti,SRT
Chengdu Huaizhou Airport,30.677339,104.529397,CN,Chengdu (Jintang),HZU
Indigo Bay Lodge Airport,-21.708,35.452801,MZ,Bazaruto Island,IBL
Sangia Nibandera Airport,-4.338158,121.524047,ID,Kolaka,KXB
Dhoho International Airport,-7.750278,111.947222,ID,Kediri,DHX
Namniwel Airport,-3.143159,126.976469,ID,Namniwel,NAM
Tebelian Airport,-0.045214,111.458049,ID,Sintang,SQG
Bilogai-Sugapa Airport,-3.739503,137.031183,ID,Sugapa,UGU
Jakkur Aerodrome,13.07674,77.597645,IN,Bengaluru,
Ayodhya Airport,26.751283,82.155295,IN,Faizabad,AYJ
Manohar International Airport,15.744257,73.860625,IN,Mopa,GOX
Rashtrakavi Kuvempu Airport,13.858024,75.618868,IN,Shimoga,RQY
Itanagar Donyi Polo Hollongi Airport,26.96683,93.638792,IN,Hollongi,HGI
Sant Gadge Baba Yavatmal Airport,20.395781,78.216272,IN,Yavatmal,
H1 New Air Base,33.816262,41.436712,IQ,Anah,
H2 Air Base,33.36372375488281,40.5880241394043,IQ,,
H3 Air Base,32.92938232421875,39.74510192871094,IQ,,
H3 Northwest AFB,33.07456970214844,39.59961700439453,IQ,,
H3 Southwest Air Base,32.74492645263672,39.59955596923828,IQ,,
Jalibah Southeast Air Base,30.546518,46.602779,IQ,Jalibah,
Kut Al Hayy East Air Base,32.11684036254883,46.38224029541016,IQ,,
Qalat Salih Air Base,31.456581115722656,47.289791107177734,IQ,,
Rasheed Air Base,33.279327,44.493706,IQ,Baghdad,
Ruwayshid Air Base,32.40611267089844,39.12361145019531,IQ,,
Sahl Sinjar Air Base,35.8592643737793,42.14213943481445,IQ,,
Salum Air Base,34.1640739440918,44.7469482421875,IQ,,
Samarra East Air Base / Dhuluiya Airport,34.16554,44.264304,IQ,Dhuluiya,
Tal Ashtah New Air Base,35.139721,44.133888,IQ,,
Tuz Khurmatu Air Base,34.93722152709961,44.4827766418457,IQ,,
Wadi Al Khirr New Air Base,31.417402267456055,43.1823616027832,IQ,,
Oghab 44 Airbase,28.04816,55.521791,IR,Tarom Rural District,
New Ishigaki Airport,24.396389,124.245,JP,Ishigaki,ISG
Daxing'anling Elunchun Airport,50.371389,124.1175,CN,Jiagedaqi,JGD
Qianjiang Wulingshan Airport,29.5133333333,108.831111111,CN,Qianjiang,JIQ
Comandante Ariston Pessoa Airport,-2.906425,-40.357338,BR,Cruz,JJD
Jinzhou Bay Airport,40.936032,121.277114,CN,Jinzhou (Linghai),JNZ
King Feisal Air Base,30.3435,36.147701,JO,Al-Jafr,
Boulder City Municipal Airport,35.947161,-114.858799,US,Boulder City,BLD
Mesquite International Airport,36.833105,-114.055928,US,Mesquite,MFH
Van Zandt County Regional Airport,32.681499,-95.9841,US,Wills Point,
South Alabama Regional At Bill Benton Field Airport,31.3088,-86.393799,US,Andalusia/Opp,
Lehigh Valley International Airport,40.651773,-75.442797,US,Allentown,ABE
Abilene Regional Airport,32.4113006592,-99.6819000244,US,Abilene,ABI
Albuquerque International Sunport,35.039976,-106.608925,US,Albuquerque,ABQ
Aberdeen Regional Airport,45.449100494384766,-98.42179870605467,US,Aberdeen,ABR
Southwest Georgia Regional Airport,31.532946,-84.196215,US,Albany,ABY
Nantucket Memorial Airport,41.25310135,-70.06020355,US,Nantucket,ACK
Waco Regional Airport,31.611299514770508,-97.23049926757812,US,Waco,ACT
California Redwood Coast-Humboldt County Airport,40.978101,-124.109,US,Arcata/Eureka,ACV
Atlantic City International Airport,39.45759963989258,-74.57720184326172,US,Atlantic City,ACY
Ada Regional Airport,34.805214,-96.671988,US,Ada,ADT
Joint Base Andrews,38.810799,-76.866997,US,Camp Springs,ADW
Alexandria International Airport,31.3274,-92.549797,US,Alexandria,AEX
Perot Field/Fort Worth Alliance Airport,32.99044,-97.31947,US,Fort Worth,AFW
Allegheny County Airport,40.354401,-79.930199,US,Pittsburgh,AGC
Augusta Regional At Bush Field,33.3699,-81.9645,US,Augusta,AGS
Athens Ben Epps Airport,33.948842,-83.325634,US,Athens,AHN
Alliance Municipal Airport,42.052543,-102.803965,US,Alliance,AIA
Akron Fulton International Airport,41.037355,-81.46784,US,Akron,AKC
Albany International Airport,42.74829864501953,-73.80169677734375,US,Albany,ALB
Alice International Airport,27.7409,-98.026901,US,Alice,ALI
Alamogordo White Sands Regional Airport,32.837818,-105.993149,US,Alamogordo,ALM
St Louis Regional Airport,38.89030075069999,-90.0459976196,US,Alton/St Louis,ALN
Waterloo Regional Airport,42.557098388671875,-92.40029907226562,US,Waterloo,ALO
San Luis Valley Regional Airport/Bergman Field,37.434898,-105.866997,US,Alamosa,ALS
Walla Walla Regional Airport,46.09489822,-118.288002,US,Walla Walla,ALW
Rick Husband Amarillo International Airport,35.219398,-101.706001,US,Amarillo,AMA
Anniston Regional Airport,33.5882,-85.8581,US,Anniston,ANB
Anderson Regional Airport,34.4945983887,-82.70939636230001,US,Anderson,AND
Altoona Blair County Airport,40.296398,-78.32,US,Altoona,AOO
Centennial Airport,39.57009888,-104.848999,US,Denver,APA
Naples Municipal Airport,26.1525993347,-81.7752990723,US,Naples,APF
Phillips Army Air Field,39.466202,-76.1688,US,Aberdeen,APG
Alpena County Regional Airport,45.0780983,-83.56030273,US,Alpena,APN
Acadiana Regional Airport,30.0378,-91.883904,US,New Iberia,ARA
Watertown International Airport,43.991901,-76.021698,US,Watertown,ART
Aspen-Pitkin County Airport (Sardy Field),39.223202,-106.869003,US,Aspen,ASE
Astoria Regional Airport,46.158000946,-123.878997803,US,Astoria,AST
Hartsfield Jackson Atlanta International Airport,33.6367,-84.428101,US,Atlanta,ATL
Appleton International Airport,44.258099,-88.519096,US,Appleton,ATW
Watertown Regional Airport,44.91400146,-97.15470123,US,Watertown,ATY
Augusta State Airport,44.320598602299995,-69.7973022461,US,Augusta,AUG
Austin Bergstrom International Airport,30.197535,-97.662015,US,Austin,AUS
Wausau Downtown Airport,44.9262008667,-89.6266021729,US,Wausau,AUW
Asheville Regional Airport,35.436199,-82.541801,US,Asheville,AVL
Wilkes Barre Scranton International Airport,41.338500976599995,-75.72339630130001,US,Wilkes-Barre/Scranton,AVP
Arlington Municipal Airport,48.161448,-122.158442,US,Arlington,
Chandler Field,45.866299,-95.394699,US,Alexandria,AXN
Kalamazoo Battle Creek International Airport,42.234901428222656,-85.5521011352539,US,Kalamazoo,AZO
Beale Air Force Base,39.136101,-121.436996,US,Beale Air Force Base,BAB
Barksdale Air Force Base,32.501801,-93.662697,US,Bossier City,BAD
Westfield-Barnes Regional Airport,42.157799,-72.715599,US,Westfield,BAF
Columbus Municipal Airport,39.262386,-85.895576,US,Columbus,CLU
New Braunfels Municipal Airport,29.7045,-98.042198,US,New Braunfels,
Curtis Field,31.178931,-99.324732,US,Brady,BBD
Branson Airport,36.532082,-93.200544,US,Branson,BKG
Bryce Canyon Airport,37.706401825,-112.144996643,US,Bryce Canyon,BCE
Boca Raton Airport,26.3785,-80.107697,US,Boca Raton,BCT
Baudette International Airport,48.7284011841,-94.612197876,US,Baudette,BDE
Bradley International Airport,41.93851,-72.688066,US,Hartford,BDL
Igor I Sikorsky Memorial Airport,41.163502,-73.126198,US,Bridgeport,BDR
Laurence G Hanscom Field,42.470001,-71.289001,US,Bedford,BED
Bradford Regional Airport,41.8031005859375,-78.64009857177734,US,Bradford,BFD
Western Neb. Rgnl/William B. Heilig Airport,41.87400055,-103.5960007,US,Scottsbluff,BFF
Boeing Field King County International Airport,47.529999,-122.302002,US,Seattle,BFI
Meadows Field,35.433601,-119.056999,US,Bakersfield,BFL
Mobile Downtown Airport,30.626800537100003,-88.06809997559999,US,Mobile,BFM
Greater Binghamton/Edwin A Link field,42.20869827,-75.97979736,US,Binghamton,BGM
Bangor International Airport,44.8074,-68.828102,US,Bangor,BGR
Hancock County-Bar Harbor Airport,44.45000076,-68.3615036,US,Bar Harbor,BHB
Birmingham-Shuttlesworth International Airport,33.562901,-86.753502,US,Birmingham,BHM
Biggs Army Air Field (Fort Bliss),31.84950066,-106.3799973,US,Fort Bliss/El Paso,BIF
Eastern Sierra Regional Airport,37.3731,-118.363998,US,Bishop,BIH
Billings Logan International Airport,45.807701,-108.542999,US,Billings,BIL
Bismarck Municipal Airport,46.772701263427734,-100.74600219726562,US,Bismarck,BIS
Keesler Air Force Base,30.4104003906,-88.92440032959999,US,Biloxi,BIX
Rocky Mountain Metropolitan Airport,39.908798,-105.116997,US,Denver,BJC
Bemidji Regional Airport,47.50939941,-94.93370056,US,Bemidji,BJI
Baker City Municipal Airport,44.8372993469,-117.808998108,US,Baker City,BKE
Buckley Space Force Base,39.701698,-104.751999,US,Aurora,BFK
Burke Lakefront Airport,41.51750183105469,-81.68329620361328,US,Cleveland,BKL
Raleigh County Memorial Airport,37.7873,-81.124199,US,Beaver,BKW
Mercer County Airport,37.295799,-81.207703,US,Bluefield,BLF
Blythe Airport,33.6192016602,-114.717002869,US,Blythe,BLH
Bellingham International Airport,48.79280090332031,-122.53800201416016,US,Bellingham,BLI
Scott AFB/Midamerica Airport,38.5452,-89.835197,US,Belleville,BLV
Monroe County Airport,39.145999908447266,-86.61669921875,US,Bloomington,BMG
Central Illinois Regional Airport at Bloomington-Normal,40.4771,-88.915901,US,Bloomington/Normal,BMI
Nashville International Airport,36.1245,-86.6782,US,Nashville,BNA
Burns Municipal Airport,43.590463,-118.955154,US,Burns,BNO
Boise Air Terminal/Gowen Field,43.5644,-116.223,US,Boise,BOI
Logan International Airport,42.36197,-71.0079,US,Boston,BOS
Miley Memorial Field,42.58509827,-110.1110001,US,Big Piney,BPI
Ozark Regional Airport,36.3689002991,-92.4704971313,US,Mountain Home,WMH
Jack Brooks Regional Airport,29.9508,-94.020699,US,Beaumont/Port Arthur,BPT
Brunswick Golden Isles Airport,31.258801,-81.466499,US,Brunswick,BQK
Brainerd Lakes Regional Airport,46.402861,-94.129727,US,Brainerd,BRD
Southeast Iowa Regional Airport,40.783199310302734,-91.12550354003906,US,Burlington,BRL
Brownsville South Padre Island International Airport,25.90679931640625,-97.4259033203125,US,Brownsville,BRO
Battle Creek Executive Airport at Kellogg Field,42.307301,-85.251503,US,Battle Creek,BTL
Bert Mooney Airport,45.95479965209961,-112.49700164794922,US,Butte,BTM
Baton Rouge Metropolitan Airport,30.533199,-91.149597,US,Baton Rouge,BTR
Burlington International Airport,44.471901,-73.153297,US,South Burlington,BTV
Buffalo Niagara International Airport,42.940498,-78.732201,US,Buffalo,BUF
Hollywood Burbank Airport,34.197703,-118.356378,US,Burbank,BUR
Beaver County Airport,40.772499,-80.391403,US,Beaver Falls,BFP
Beverly Regional Airport,42.584202,-70.916496,US,Beverly / Danvers,BVY
Bowling Green Warren County Regional Airport,36.964500427199994,-86.41970062259999,US,Bowling Green,BWG
Baltimore/Washington International Thurgood Marshall Airport,39.1754,-76.668297,US,Baltimore,BWI
Arkansas International Airport,35.9642982483,-89.94400024410001,US,Blytheville,BYH
Burley Municipal Airport,42.542598724399994,-113.772003174,US,Burley,BYI
Bicycle Lake Army Air Field,35.2804985046,-116.629997253,US,Fort Irwin/Barstow,BYS
Bozeman Yellowstone International Airport,45.7775,-111.153,US,Bozeman,BZN
Columbia Metropolitan Airport,33.938801,-81.119499,US,Columbia,CAE
Akron Canton Regional Airport,40.91609954833984,-81.44219970703125,US,Akron,CAK
Caribou Municipal Airport,46.871498,-68.017899,US,Caribou,CAR
Columbus Air Force Base,33.643799,-88.443802,US,Columbus,CBM
Buchanan Field,37.9897,-122.056999,US,Concord,CCR
Northeast Iowa Regional Airport,43.0726013184,-92.6108016968,US,Charles City,CCY
Cedar City Regional Airport,37.70100021362305,-113.0989990234375,US,Cedar City,CDC
Chadron Municipal Airport,42.837601,-103.095001,US,Chadron,CDR
Childress Municipal Airport,34.4337997437,-100.288002014,US,Childress,CDS
Jack Mc Namara Field Airport,41.778929,-124.236403,US,Crescent City,CEC
Westover Metropolitan Airport / Westover Air Reserve Base,42.194,-72.534798,US,Chicopee,CEF
Bob Sikes Airport,30.778799057,-86.522102356,US,Crestview,CEW
Cortez Municipal Airport,37.303001,-108.627998,US,Cortez,CEZ
Cuyahoga County Airport,41.5651016235,-81.4863967896,US,Cleveland,CGF
Cape Girardeau Regional Airport,37.2253,-89.570801,US,Cape Girardeau,CGI
Chattanooga Metropolitan Airport (Lovell Field),35.035301,-85.203796,US,Chattanooga,CHA
Charlottesville Albemarle Airport,38.13859939575195,-78.4529037475586,US,Charlottesville,CHO
Charleston International Airport,32.898602,-80.040497,US,Charleston,CHS
The Eastern Iowa Airport,41.884701,-91.7108,US,Cedar Rapids,CID
Chippewa County International Airport,46.247707,-84.471379,US,Kincheloe,CIU
North Central West Virginia Airport,39.2966,-80.228104,US,Bridgeport,CKB
Cleveland Hopkins International Airport,41.411701,-81.8498,US,Cleveland,CLE
Easterwood Field,30.58860016,-96.36380005,US,College Station,CLL
William R Fairchild International Airport,48.120201,-123.5,US,Port Angeles,CLM
Charlotte Douglas International Airport,35.2140007019043,-80.94309997558594,US,Charlotte,CLT
Camarillo International Airport,34.213699,-119.094002,US,Camarillo,
John Glenn Columbus International Airport,39.998001,-82.891899,US,Columbus,CMH
University of Illinois Willard Airport,40.039819,-88.276249,US,Savoy,CMI
Houghton County Memorial Airport,47.168399810791016,-88.48909759521484,US,Hancock,CMX
Cavern City Air Terminal,32.337501525878906,-104.26300048828124,US,Carlsbad,CNM
Chanute Martin Johnson Airport,37.668173,-95.486727,US,Chanute,CNU
Canyonlands Regional Airport,38.755001,-109.754997,US,Moab,CNY
Yellowstone Regional Airport,44.520199,-109.024002,US,Cody,COD
Coeur D'Alene Airport - Pappy Boyington Field,47.7743,-116.82,US,Coeur d'Alene,COE
Patrick Space Force Base,28.2349,-80.6101,US,Cocoa Beach,COF
Concord Municipal Airport,43.20270157,-71.50229645,US,Concord,CON
City of Colorado Springs Municipal Airport,38.805801,-104.700996,US,Colorado Springs,COS
Columbia Regional Airport,38.8181,-92.219597,US,Columbia,COU
Casper-Natrona County International Airport,42.908001,-106.463997,US,Casper,CPR
Grand Strand Airport,33.8116989136,-78.72389984130001,US,North Myrtle Beach,CRE
Jacksonville Executive at Craig Airport,30.3362998962,-81.51439666750001,US,Jacksonville,CRG
Corpus Christi International Airport,27.770399,-97.501198,US,Corpus Christi,CRP
McClellan-Palomar Airport,33.1283,-117.279999,US,Carlsbad,CLD
Yeager Airport,38.3731,-81.593201,US,Charleston,CRW
Columbus Metropolitan Airport,32.516300201416016,-84.93890380859375,US,Columbus,CSG
Crossville Memorial Airport Whitson Field,35.95131,-85.08499,US,Crossville,CSV
Cut Bank International Airport,48.608657,-112.378183,US,Cut Bank,CTB
Jim Hamilton L.B. Owens Airport,33.970500946,-80.9952011108,US,Columbia,CUB
Cincinnati Northern Kentucky International Airport,39.048801,-84.667801,US,Cincinnati / Covington,CVG
Clovis Municipal Airport,34.426594,-103.078794,US,Clovis,CVN
Corvallis Municipal Airport,44.49720001,-123.2900009,US,Corvallis,CVO
Cannon Air Force Base,34.382801,-103.321999,US,Clovis,CVS
Central Wisconsin Airport,44.777448,-89.670238,US,Mosinee,CWA
Conroe-North Houston Regional Airport,30.351801,-95.414497,US,Houston,CXO
Cheyenne Regional Jerry Olson Field,41.155701,-104.811997,US,Cheyenne,CYS
Davison Army Air Field,38.715000152600005,-77.1809997559,US,Fort Belvoir,DAA
Daytona Beach International Airport,29.179899,-81.058098,US,Daytona Beach,DAB
Barstow Daggett Airport,34.85369873,-116.7870026,US,Daggett,DAG
Dallas Love Field,32.847099,-96.851799,US,Dallas,DAL
Danville Regional Airport,36.572899,-79.336098,US,Danville,DAN
James M Cox Dayton International Airport,39.902401,-84.219398,US,Dayton,DAY
